stop_id,stop_code,stop_name,stop_desc,stop_lat,stop_lon,zone_id,stop_url,location_type,parent_station
1,,César Ercilla / Alejandro Humboldt,,-40.570927,-73.109565,,,0,
2,,Dieciocho De Septiembre / Julio Buschman,,-40.576437,-73.107111,,,0,
3,,César Ercilla / Zenteno,,-40.585451,-73.121437,,,0,
4,,Los Carrera / Manuel Bulnes,,-40.571679,-73.137948,,,0,
5,,Ramón Freire / Francisco Bilbao,"",-40.575613,-73.131124,,,0,
6,,Héroes De La Concepción / Chapiquiña,,-40.562962,-73.152441,,,0,
7,,Doctor Guillermo Buhler / Los Conquistadores,,-40.584228,-73.128701,,,0,
8,,Guillermo Francke / Machalí,,-40.568662,-73.147152,,,0,
9,,Francisco Bilbao / Bernardo O´Higgins,,-40.575876,-73.135907,,,0,
10,,Francisco Bilbao / Manuel Antonio Matta,,-40.575911,-73.135051,,,0,
11,,Diego De Almagro / El Dorado,,-40.590301,-73.116884,,,0,
12,,Argomedo / Juan Schuurman,,-40.579984,-73.105256,,,0,
13,,Julio Buschman / Pedro Aguirre Cerda,,-40.576102,-73.114047,,,0,
14,,Patricio Lynch / Andrés Bello,,-40.574494,-73.120792,,,0,
15,,Los Carrera / Angúlo,,-40.572383,-73.124823,,,0,
16,,Los Carrera / Ramón Freire,,-40.572008,-73.13096,,,0,
17,,Guillermo Francke / Julio Montt,,-40.570371,-73.146113,,,0,
18,,Francisco Bilbao / Ramón Freire,,-40.576047,-73.132064,,,0,
19,,Santa María / Alcalde Arturo Bertín,,-40.569636,-73.10765,,,0,
20,,Julio Buschman / José Vidal,,-40.578451,-73.104811,,,0,
21,,César Ercilla / Margaritas,,-40.586391,-73.122981,,,0,
22,,Portales / Eleuterio Ramírez,,-40.5732,-73.140373,,,0,
23,,Francisco Bilbao / Cristóbal Colón,,-40.576194,-73.127636,,,0,
24,,Dieciocho De Septiembre / Santa María,,-40.57222,-73.10554,,,0,
25,,Argomedo / Aldea San Alberto Magno,,-40.580499,-73.105947,,,0,
26,,César Ercilla / Doctor Guillermo Buhler,,-40.58783,-73.12616,,,0,
27,,Ramón Freire / Los Carrera,"",-40.572416,-73.13149,,,0,
28,,Guillermo Francke / Julio Montt,,-40.569794,-73.146362,,,0,
29,,Héroes De La Concepción / Potrerillos,,-40.562109,-73.152413,,,0,
30,,Le Mans / Eduardo Meyer E,,-40.597027,-73.104967,,,0,
31,,Argomedo / Julio Buschman,,-40.579172,-73.104551,,,0,
32,,Patricio Lynch / Manuel Montt,,-40.575262,-73.117381,,,0,
33,,Patricio Lynch / Angúlo,,-40.574355,-73.12389,,,0,
34,,Los Carrera / Cristóbal Colón,,-40.572248,-73.126898,,,0,
35,,Terminal De Buses Línea 26,,-40.551531,-73.163393,,,0,
36,,Los Boldos / Los Piñones,,-40.552115,-73.158787,,,0,
37,,Los Boldos / Los Damascos,,-40.555413,-73.156746,,,0,
38,,Héroes De La Concepción / Paipote,,-40.564396,-73.152395,,,0,
39,,Héroes De La Concepción / Los Algarrobos,,-40.565467,-73.152043,,,0,
40,,Francisco Bilbao / Portales,,-40.575711,-73.13919,,,0,
41,,Luis Emilio Recabarren / Pedro Aguirre Cerda,,-40.574596,-73.113164,,,0,
42,,Dieciocho De Septiembre / Miguel De Unamuno,,-40.573215,-73.105902,,,0,
43,,Diego De Almagro / Guacolda,,-40.589633,-73.116399,,,0,
44,,Zenteno / Dieciocho De Septiembre,,-40.587407,-73.119021,,,0,
45,,Doctor Guillermo Buhler / Hospital Del Trabajador,,-40.586911,-73.127329,,,0,
46,,Doctor Guillermo Buhler / Santiago Rosas,,-40.584114,-73.128441,,,0,
47,,Ramón Freire / Conrado Amthauer,,-40.578938,-73.130915,,,0,
48,,Los Carrera / Lord Cochrane,,-40.57185,-73.134135,,,0,
49,,Guillermo Francke / Los Tigres,,-40.568517,-73.147023,,,0,
50,,Los Laureles / Los Cafelates,,-40.551046,-73.160754,,,0,
51,,Francia / Luisa Schöner,,-40.58933,-73.102927,,,0,
52,,Francisco Bilbao / Manuel Bulnes,,-40.575743,-73.138603,,,0,
53,,César Ercilla / Los Carrera,,-40.574188,-73.11076,,,0,
54,,Dieciocho De Septiembre / Milton Vásquez,,-40.574435,-73.106359,,,0,
55,,Zenteno / Carol Urzúa,,-40.588478,-73.118094,,,0,
56,,Arturo Prat / Barros Araña,,-40.58157,-73.128798,,,0,
57,,Doctor Guillermo Buhler / Hospital Del Trabajador,,-40.586704,-73.127961,,,0,
58,,Hospital Osorno,,-40.587341,-73.127094,,,0,
59,,Zenteno / César Ercilla,,-40.585707,-73.120533,,,0,
60,,Ramón Freire / Barros Araña,,-40.581289,-73.129904,,,0,
61,,Ramón Freire / Manuel Rodríguez,,-40.577701,-73.130956,,,0,
62,,Los Carrera / Manuel Antonio Matta,,-40.571839,-73.134376,,,0,
63,,Diego De Almagro / Amador Barrientos,,-40.582687,-73.107621,,,0,
64,,Los Carrera / Bernardo O`Higgins,,-40.571692,-73.137645,,,0,
65,,Los Pellines / Héroes De La Concepción,,-40.560528,-73.152763,,,0,
66,,Héroes De La Concepción / Chucumata,,-40.568047,-73.149418,,,0,
67,,Héroes De La Concepción / Chañaral,,-40.565648,-73.151729,,,0,
68,,Argomedo / Aldea San Alberto Magno,,-40.581226,-73.106335,,,0,
69,,Julio Buschman / Dieciocho De Septiembre,,-40.577413,-73.106752,,,0,
70,,Patricio Lynch / José Manuel Balmaceda,,-40.574865,-73.118831,,,0,
71,,Angúlo / Errázuriz,,-40.573297,-73.124169,,,0,
72,,Los Carrera / Arturo Prat,,-40.572043,-73.13013,,,0,
73,,Terminal Buses Cruz Del Sur Puerto Montt,Terminal De Buses,-41.462984,-72.953923,6,,0,
74,,Pargua,Rampa Pargua,-41.792775,-73.458981,8,,0,
75,,Chacao,Rampa Chacao,-41.829126,-73.515615,7,,0,
76,,Terminal De Buses Cruz Del Sur Ancud,Terminal Cruz Del Sur,-41.871111,-73.825652,5,,0,
77,,Terminal De Buses Cruz Del Sur Castro,Terminal Cruz Del Sur,-42.4806086556755,-73.7645081779099,4,,0,
78,,Terminal Municipal De Buses Puerto Montt,,-41.477348,-72.950419,6,,0,
79,,Terminal Municipal De Chonchi,,-42.624131,-73.772829,1,,0,
80,,Terminal De Buses Quellon,,-43.1193109941366,-73.6223163816146,2,,0,
81,,Terminal De Buses Dalcahue,,-42.3795077574033,-73.6477596061515,3,,0,
82,,Terminal De Buses Osorno,,-40.572978,-73.125653,9,,0,
83,,Ruta 5 Sur / Empresas De Transporte J. Bustamante,,-41.379885,-72.96865,,,0,
84,,Ruta 5 Sur V - 500,,-41.06324,-73.093226,,,0,
85,,Ruta 5 Sur / Casma,,-41.00951,-73.120786,,,0,
86,,Ruta 5 Sur / Del Copihue,,-40.990717,-73.124177,,,0,
87,,Ruta 5 Sur / Corte Alto,,-40.944141,-73.138788,,,0,
88,,Ruta 5 Sur / Purranque Sur,,-40.915077,-73.147878,,,0,
89,,Ruta 5 Sur / Purranque Norte,,-40.911991,-73.14883,,,0,
90,,Ruta 5 Sur / Río Negro,,-40.812584,-73.168512,,,0,
91,,Ruta 5 Sur / Río Negro Medio,,-40.800016,-73.165451,,,0,
92,,Ruta 5 Sur / Empresas De Transporte J. Bustamante,,-41.37996,-72.969467,,,0,
93,,Ruta 5 Sur V - 500,,-41.062545,-73.093114,,,0,
94,,Ruta 5 Sur / Casma,,-41.006397,-73.11973,,,0,
95,,Ruta 5 Sur / Del Copihue,,-40.9906,-73.123771,,,0,
96,,Ruta 5 Sur / Corte Alto,,-40.943997,-73.138384,,,0,
97,,Ruta 5 Sur / Purranque Sur,,-40.915023,-73.147491,,,0,
98,,Ruta 5 Sur / Purranque Norte,,-40.911857,-73.148481,,,0,
99,,Ruta 5 Sur / Río Negro,,-40.811701,-73.167838,,,0,
100,,Ruta 5 Sur / Regimiento Sangra,,-41.398725,-72.95984,,,0,
101,,Ruta 5 Sur / Regimiento Sangra,,-41.398846,-72.960318,,,0,
102,,Ruta 5 Sur / Pellines,,-41.192312,-73.069492,,,0,
103,,Ruta 5 Sur / Pellines,,-41.191585,-73.069505,,,0,
104,,Ruta 5 Sur / Río Negro Medio,,-40.79819,-73.164601,,,0,
105,,Ruta 5 Sur / Río Negro Norte,,-40.791973,-73.163213,,,0,
106,,Ruta 5 Sur / Río Negro Norte,,-40.790813,-73.163283,,,0,
107,,Ruta 5 Sur / Cancura,,-40.758378,-73.155064,,,0,
108,,Ruta 5 Sur / Cancura,,-40.756428,-73.155013,,,0,
109,,Ruta 5 Sur / Chahuilco,,-40.737229,-73.150345,,,0,
110,,Ruta 5 Sur / Chahuilco,,-40.734466,-73.149203,,,0,
111,,Ruta 5 Sur / Pichil,,-40.696058,-73.132774,,,0,
112,,Ruta 5 Sur / Pichil,,-40.69244,-73.131113,,,0,
113,,Ruta 5 Sur / Osorno Sur,,-40.654949,-73.119231,,,0,
114,,Ruta 5 Sur / Osorno Sur,,-40.652831,-73.118165,,,0,
115,,Carretera Austral / Camino Lintz,"",-41.490396826092,-72.886437775463,,,0,
116,,Carretera Austral / Cuarta Terraza,,-41.490759,-72.875911,,,0,
117,"",Carretera Austral / Salida Coihuín,"",-41.483575,-72.850734,,"",0,
118,,Carretera Austral / Puente Chamiza,,-41.483103,-72.84583,,,0,
119,,Carretera Austral / Entrada Piedra Azul,,-41.503418,-72.801676,,,0,
120,,Carretera Austral / Piedra Azul,,-41.513368,-72.781145,,,0,
121,,Carretera Austral / Entrada Quillaipe,,-41.527432,-72.74096,,,0,
122,"",Carretera Austral / Playa Quillaipe,"",-41.543208,-72.731263,,"",0,
123,"",Carretera Austral / Los Arrayanes,"",-41.546066,-72.728951,,"",0,
124,"",Carretera Austral / Bahía Quillaipe,"",-41.54817,-72.72799,,"",0,
125,,Carretera Austral / Estación De Salud Quillaipe,,-41.556017,-72.732187,,,0,
126,,Carretera Austral / Entrada Metri,,-41.580513,-72.718367,,,0,
127,,Carretera Austral / Salida Metri,,-41.594253,-72.703509,,,0,
128,,Carretera Austral / Lenca,,-41.603693,-72.692014,,,0,
129,,Carretera Austral / Puente Lenca,,-41.606645,-72.682298,,,0,
130,,Carretera Austral / Camino Parque Nacional Alerce Andino,,-41.608912,-72.671682,,,0,
131,,Carretera Austral / Puente Chaicas,,-41.614069,-72.659784,,,0,
132,,Carretera Austral / Entrada Chaicas,,-41.622847,-72.661268,,,0,
133,,Carretera Austral / Escuela Rural Chaicas,,-41.627286,-72.665745,,,0,
134,"",Carretera Austral / Chaicas Centro,"",-41.63276,-72.667829,,"",0,
135,,Carretera Austral / Entrada Caleta La Arena,,-41.661199,-72.663393,,,0,
136,"",Carretea Austral / Caleta La Arena,"",-41.692328,-72.641686,,"",0,
137,,Carretera Austral / Salida Caleta La Arena,,-41.664059,-72.661693,,,0,
138,,Carretera Austral / Entrada Chaicas,,-41.637312,-72.668588,,,0,
139,"",Carretera Austral / Chaicas Centro,"",-41.631019,-72.666043,,"",0,
140,,Carretera Austral / Escuela Rural Chaicas,,-41.628144,-72.665974,,,0,
141,,Carretera Austral / Salida Chaicas,,-41.622342,-72.660369,,,0,
142,,Carretera Austral / Puente Chaicas,,-41.613638,-72.65998,,,0,
143,,Carretera Austral / Camino Parque Nacional Alerce Andino,,-41.608487,-72.671696,,,0,
144,,Carretera Austral / Puente Lenca,,-41.606441,-72.682501,,,0,
145,"",Carretera Austral / Lenca Sur,"",-41.605487,-72.685641,,"",0,
146,,Carretera Austral / Metri,,-41.591329,-72.70174,,,0,
147,,Carretera Austral / Escuela Metri,,-41.587805,-72.701653,,,0,
148,,Carretera Asutral / Escuela Metri,,-41.588073,-72.702286,,,0,
149,,Carretera Austral / Salida Metri,,-41.588841,-72.706001,,,0,
150,,Carretera Asutral / Entrada Quillaipe,,-41.575489,-72.722758,,,0,
151,"",Carretera Austral / Quillaipe Sur,"",-41.572333,-72.724194,,"",0,
152,"",Carretera Austral / Quillaipe,"",-41.564842,-72.729271,,"",0,
153,"",Carretera Austral / Playa Quillaipe,"",-41.542701,-72.73118,,"",0,
154,,Carretera Austral / Salida Quillaipe,,-41.52607,-72.746797,,,0,
155,,Carretera Austral / Pichiquillaipe,,-41.522286,-72.76298,,,0,
156,,Carretera Austral / Entrada Piedra Azul,,-41.519403,-72.769657,,,0,
157,,Carretera Austral / Liceo Piedra Azul,,-41.516648,-72.775299,,,0,
158,,Carretera Austral / Piedra Azul,,-41.511469,-72.784843,,,0,
159,"",Carretera Austral / Piedra Azul Centro,"",-41.508282,-72.790405,,"",0,
160,,Carretera Austral / Salida Piedra Azul,,-41.498498,-72.808515,,,0,
161,,Carretera Austral / Entrada Chamiza,,-41.490667,-72.815765,,,0,
162,"",Carretera Austral / Chamiza,"",-41.483014,-72.833432,,"",0,
163,"",Carretera Austral / Marine Harvest,"",-41.482892,-72.839177,,"",0,
164,"",Carretera Austral / Entrada Coihuín,"",-41.48345,-72.850733,,"",0,
165,"",Carretera Austral / Coihuín,"",-41.483729,-72.852251,,"",0,
166,"",Carretera Austral / Las Toninas,"",-41.486255,-72.861635,,"",0,
167,"",Carretera Austral / Pelluhuín,"",-41.48648,-72.864637,,"",0,
168,"",Carretera Austral / Salida Coihuín,"",-41.486421,-72.868646,,"",0,
169,,Terminal Municipal De Buses Puerto Montt,,-41.477348,-72.950419,,,0,
170,,Carretera Austral / Lenca,"",-41.603504,-72.691937,,,0,
171,,Terminal Municipal De Castro,,-42.478556,-73.76294,14,,0,
172,,Terminal Municipal De Chonchi,,-42.624131,-73.772829,13,,0,
173,,Parque Nacional Chiloé,,-42.625351,-74.108309,12,,0,
174,,Huillinco,,-42.674945,-73.898049,11,,0,
175,"",Cucao,,-42.6383515313398,-74.109615239337,10,"",0,
176,"",Huillinco,"",-42.675016846167,-73.897963627749,11,"",0,
177,,Terminal Municipal De Buses Puerto Montt,Diego Portales / Eusebio Lilo,-41.477348,-72.950419,,,0,
178,,Carretera Austral / Camino Lintz,"",-41.490396826092,-72.886437775463,,,0,
179,,Carretera Austral / Cuarta Terraza,,-41.490759,-72.875911,,,0,
180,,Carretera Austral / Salida Coihuín,"",-41.483575,-72.850734,,,0,
181,,Carretera Austral / Puente Chamiza,,-41.483103,-72.84583,,,0,
182,,Carretera Austral / Entrada Piedra Azul,,-41.503418,-72.801676,,,0,
183,,Carretera Austral / Piedra Azul,,-41.513368,-72.781145,,,0,
184,,Carretera Austral / Entrada Quillaipe,,-41.527432,-72.74096,,,0,
185,,Carretera Austral / Playa Quillaipe,"",-41.543208,-72.731263,,,0,
186,,Carretera Austral / Los Arrayanes,"",-41.546066,-72.728951,,,0,
187,,Carretera Austral / Bahía Quillaipe,"",-41.54817,-72.72799,,,0,
188,,Carretera Austral / Estación De Salud Quillaipe,,-41.556017,-72.732187,,,0,
189,,Carretera Austral / Entrada Metri,,-41.580513,-72.718367,,,0,
190,,Carretera Austral / Salida Metri,,-41.594253,-72.703509,,,0,
191,,Carretera Austral / Lenca,,-41.603693,-72.692014,,,0,
192,,Carretera Austral / Puente Lenca,,-41.606645,-72.682298,,,0,
193,,Carretera Austral / Camino Parque Nacional Alerce Andino,,-41.608912,-72.671682,,,0,
194,,Carretera Austral / Puente Chaicas,,-41.614069,-72.659784,,,0,
195,,Carretera Austral / Entrada Chaicas,,-41.622847,-72.661268,,,0,
196,,Carretera Austral / Escuela Rural Chaicas,,-41.627286,-72.665745,,,0,
197,,Carretera Austral / Chaicas Centro,"",-41.63276,-72.667829,,,0,
198,,Carretera Austral / Entrada Caleta La Arena,,-41.661199,-72.663393,,,0,
199,,Carretea Austral / Caleta La Arena,,-41.692328,-72.641686,,,0,
200,,Carretera Austral / Salida Caleta La Arena,,-41.664059,-72.661693,,,0,
201,,Carretera Austral / Entrada Chaicas,,-41.637312,-72.668588,,,0,
202,,Carretera Austral / Chaicas Centro,"",-41.631019,-72.666043,,,0,
203,,Carretera Austral / Escuela Rural Chaicas,,-41.628144,-72.665974,,,0,
204,,Carretera Austral / Salida Chaicas,,-41.622342,-72.660369,,,0,
205,,Carretera Austral / Puente Chaicas,,-41.613638,-72.65998,,,0,
206,,Carretera Austral / Camino Parque Nacional Alerce Andino,,-41.608487,-72.671696,,,0,
207,,Carretera Austral / Puente Lenca,,-41.606441,-72.682501,,,0,
208,,Carretera Austral / Lenca Sur,"",-41.605487,-72.685641,,,0,
209,,Carretera Austral / Metri,,-41.591329,-72.70174,,,0,
210,,Carretera Austral / Escuela Metri,,-41.587805,-72.701653,,,0,
211,,Carretera Asutral / Escuela Metri,,-41.588073,-72.702286,,,0,
212,,Carretera Austral / Salida Metri,,-41.588841,-72.706001,,,0,
213,,Carretera Asutral / Entrada Quillaipe,,-41.575489,-72.722758,,,0,
214,,Carretera Austral / Quillaipe Sur,"",-41.572333,-72.724194,,,0,
215,,Carretera Austral / Quillaipe,"",-41.564842,-72.729271,,,0,
216,,Carretera Austral / Playa Quillaipe,"",-41.542701,-72.73118,,,0,
217,,Carretera Austral / Salida Quillaipe,,-41.52607,-72.746797,,,0,
218,,Carretera Austral / Pichiquillaipe,,-41.522286,-72.76298,,,0,
219,,Carretera Austral / Entrada Piedra Azul,,-41.519403,-72.769657,,,0,
220,,Carretera Austral / Liceo Piedra Azul,,-41.516648,-72.775299,,,0,
221,,Carretera Austral / Piedra Azul,,-41.511469,-72.784843,,,0,
222,,Carretera Austral / Piedra Azul Centro,"",-41.508282,-72.790405,,,0,
223,,Carretera Austral / Salida Piedra Azul,,-41.498498,-72.808515,,,0,
224,,Carretera Austral / Entrada Chamiza,,-41.490667,-72.815765,,,0,
225,,Carretera Austral / Chamiza,"",-41.483014,-72.833432,,,0,
226,,Carretera Austral / Marine Harvest,"",-41.482892,-72.839177,,,0,
227,,Carretera Austral / Entrada Coihuín,"",-41.48345,-72.850733,,,0,
228,,Carretera Austral / Coihuín,"",-41.483729,-72.852251,,,0,
229,,Carretera Austral / Las Toninas,"",-41.486255,-72.861635,,,0,
230,,Carretera Austral / Pelluhuín,"",-41.48648,-72.864637,,,0,
231,,Carretera Austral / Salida Coihuín,"",-41.486421,-72.868646,,,0,
232,,Carretera Austral / Lenca,"",-41.603504,-72.691937,,,0,
233,,Terminal Municipal De Castro,,-42.478556,-73.76294,18,,0,
234,,Terminal Municipal De Chonchi,,-42.624131,-73.772829,19,,0,
235,,Huillinco,,-42.674945,-73.898049,16,,0,
236,,Parque Nacional Chiloé,Acceso Sur,-42.625351,-74.108309,17,,0,
237,,Huillinco,"",-42.675016846167,-73.897963627749,,,0,
238,,Cucao,,-42.6383515313398,-74.109615239337,,,0,
239,,Terminal Municipal De Buses Puerto Montt,Diego Portales / Eusebio Lilo,-41.477348,-72.950419,,,0,
240,,Ruta 5 Sur / Empresas De Transporte J. Bustamante,Ruta 5 Sur V - 593,-41.379885,-72.96865,,,0,
241,,Ruta 5 Sur / Empresas De Transporte J. Bustamante,Regreso Pto. Montt,-41.37996,-72.969467,,,0,
242,,Ruta 5 Sur V - 500,Regreso Pto. Montt,-41.06324,-73.093226,,,0,
244,,Ruta 5 Sur / Casma,Regreso Pto. Montt,-41.00951,-73.120786,,,0,
245,,Ruta 5 Sur / Casma,,-41.006397,-73.11973,,,0,
246,,Ruta 5 Sur / Del Copihue,Regreso Pto. Montt,-40.990717,-73.124177,,,0,
247,,Ruta 5 Sur / Del Copihue,,-40.9906,-73.123771,,,0,
248,,Ruta 5 Sur / Corte Alto,,-40.944141,-73.138788,,,0,
249,,Ruta 5 Sur / Corte Alto,,-40.943997,-73.138384,,,0,
250,,Ruta 5 Sur / Purranque Sur,Regreso Pto. Montt,-40.915077,-73.147878,,,0,
251,,Ruta 5 Sur / Purranque Sur,,-40.915023,-73.147491,,,0,
252,,Ruta 5 Sur / Purranque Norte,Purranque,-40.911991,-73.14883,,,0,
253,,Ruta 5 Sur / Purranque Norte,Purranque,-40.911857,-73.148481,,,0,
254,,Ruta 5 Sur / Río Negro,Regreso Pto. Montt,-40.812584,-73.168512,,,0,
255,,Ruta 5 Sur / Río Negro,,-40.811701,-73.167838,,,0,
256,,Ruta 5 Sur / Río Negro Medio,Regreso Pto. Montt,-40.800016,-73.165451,,,0,
257,,Ruta 5 Sur / Regimiento Sangra,,-41.398725,-72.95984,,,0,
258,,Ruta 5 Sur / Regimiento Sangra,Regimiento Sangra Pto. Varas,-41.398846,-72.960318,,,0,
259,,Ruta 5 Sur / Pellines,Regreso Pto. Montt,-41.192312,-73.069492,,,0,
260,,Ruta 5 Sur / Pellines,,-41.191585,-73.069505,,,0,
261,,Ruta 5 Sur / Río Negro Medio,,-40.79819,-73.164601,,,0,
262,,Ruta 5 Sur / Río Negro Norte,,-40.791973,-73.163213,,,0,
263,,Ruta 5 Sur / Río Negro Norte,,-40.790813,-73.163283,,,0,
264,,Ruta 5 Sur / Cancura,,-40.758378,-73.155064,,,0,
265,,Ruta 5 Sur / Cancura,,-40.756428,-73.155013,,,0,
266,,Ruta 5 Sur / Chahuilco,Regreso Pto. Montt,-40.737229,-73.150345,,,0,
268,,Ruta 5 Sur / Pichil,,-40.696058,-73.132774,,,0,
269,,Ruta 5 Sur / Pichil,,-40.69244,-73.131113,,,0,
270,,Ruta 5 Sur / Osorno Sur,,-40.654949,-73.119231,,,0,
271,,Ruta 5 Sur / Osorno Sur,,-40.652831,-73.118165,,,0,
272,,Terminal De Buses Osorno,"",-40.572978,-73.125653,,,0,
273,"",Universidad Austral De Chile,"",-41.490302505636,-72.89638735582,,"",0,
274,"",Inés Gallardo / Avenida Juan Soler Manfredini,Inés Gallardo,-41.488495778916,-72.899109720238,,"",0,
275,"",Avenida Juan Soler Manfredini / Liborio Guerrero,Avenida Juan Soler Manfredini,-41.486485795967,-72.901757148479,,"",0,
276,"",Liborio Guerrero / Bellavista,Liborio Guerrero,-41.483970738142,-72.90097,,"",0,
277,"",Avenida Juan Soler Manfredini / Liborio Guerrero,Avenida Juan Soler Manfredini,-41.486584879471,-72.902252055225,,"",0,
278,,Mall Paseo Costanera,Avenida Juan Soler Manfredini / Avenida España,-41.472901738227,-72.937386775463,,,0,
279,,Avenida Diego Portales / Pedro Montt,Avenida Diego Portales,-41.47294,-72.941797,,,0,
280,,Avenida Diego Portales / Chillán,Avenida Diego Portales,-41.4734405548121,-72.9442916441802,,,0,
281,,Avenida Diego Portales / Ancud,Avenida Diego Portales,-41.4758602017064,-72.949144708004,,,0,
282,,Avenida Diego Portales / Videla,Avenida Diego Portales,-41.4792718670253,-72.9527391104508,,,0,
283,,Caleta Anahuac,Avenida Pacheco Altamirano,-41.4857136466876,-72.9764360760575,,,0,
284,,Universidad De Los Lagos,Avenida Pacheco Altamirano Km 6,-41.4926470872935,-72.9860029656067,,,0,
285,,Avenida Chinquihue / Pasaje Perla Marina,"Avda. Chinquihue Km 7, 2",-41.4999967519394,-72.9904118257256,,,0,
286,,Avenida Chinquihue Km 12. 68,,-41.514039,-73.030097,,,0,
287,,Avenida Chinquihue Km 13. 35,,-41.516626,-73.037247,,,0,
288,,Puerto Oxxean,,-41.517175,-73.038903,,,0,
289,,Avenida Chinquihue Km 14. 88,Avenida Chinquihue,-41.5271693271462,-73.0489064490738,,,0,
290,,Terminal Salida Panitao Alto,Camino Panitao,-41.5367568048933,-73.0516097202377,,,0,
291,,Mirador De Trapen,Avenida Chinquihue,-41.532551,-73.050381,,,0,
292,,Avenida Chinquihue Km 14. 28,Avenida Chinquihue,-41.522793,-73.044663,,,0,
293,,Avenida Chinquihue Km 13. 75,Avenida Chinquihue,-41.518753,-73.04135,,,0,
294,,Puerto Oxxean,Avenida Chinquihue,-41.517378,-73.039082,,,0,
295,,Avenida Chinquihue Km 13. 35,Avenida Chinquihue,-41.516885,-73.037593,,,0,
296,,Avenida Chinquihue Km 13. 13,Avenida Chinquihue,-41.5160609080712,-73.0344508429222,,,0,
297,,Avenida Chinquihue Km 12. 94,Avenida Chinquihue,-41.514969,-73.033184,,,0,
298,,Avenida Chinquihue Km 12. 68,Avenida Chinquihue,-41.514142,-73.030319,,,0,
299,,Avenida Chinquihue Km 12. 43,Avenida Chinquihue,-41.513884,-73.027316,,,0,
300,,Avenida Chinquihue Km 12. 09,Avenida Chinquihue,-41.511088,-73.0255,,,0,
301,,Avenida Chinquihue Km 11. 82,Avenida Chinquihue,-41.510588,-73.022394,,,0,
302,,Avenida Chinquihue Km 11. 08,Avenida Chinquihue,-41.510598,-73.013492,,,0,
303,,Avenida Chinquihue Km 9. 99,Avenida Chinquihue,-41.512304,-73.000911,,,0,
304,,Avenida Chinquihue Km 9. 63,Avenida Chinquihue,-41.5089658627657,-72.9995521226845,,,0,
305,,Avenida Chinquihue Km 9. 51,Avenida Chinquihue,-41.507953,-72.999081,,,0,
306,,Muelle Skorpios,Avenida Chinquihue Km 7. 9,-41.5036192011173,-72.9956309447746,,,0,
307,,Poblacion El Progreso,Avenida Chinquihue Km 7. 5,-41.5023121756937,-72.9920385889549,,,0,
308,,Avenida Chinquihue Km 7. 2,Avenida Chinquihue,-41.4995264036251,-72.990767733799,,,0,
309,,Club Náutico Puerto Montt,Avenida Chinquihue Km 7,-41.4984994926684,-72.9905054441109,,,0,
310,,Caleta Anahuac,Avenida Pacheco Altamirano / México,-41.4857406095372,-72.9768759067459,,,0,
311,,Avenida Pacheco Altamirano Km 4. 3,Avenida Pacheco Altamirano,-41.4869045647573,-72.9738788134918,,,0,
312,,Avenida Pacheco Altamirano / Muñoz Gamero,Avenida Pacheco Altamirano,-41.4861088607077,-72.9665870638237,,,0,
313,,Caleta Angelmó,Avenida Angelmó / Avenida Pacheco Altamirano,-41.4845790746745,-72.9630143816147,,,0,
314,,Empresa Porturia Puerto Montt,Avenida Angelmó / Independencia,-41.481398641603,-72.9563824196435,,,0,
315,,Avenida Angelmó / Miraflores,Avenida Angelmó,-41.4806937920152,-72.9549306908074,,,0,
316,,Avenida Diego Portales / Videla,Avenida Diego Portales,-41.4793376201862,-72.9524426061515,,,0,
317,,Avenida Diego Portales / Eusebio Lillo,Avenida Diego Portales,-41.4775743697523,-72.950951635582,,,0,
318,,Avenida Diego Portales / Valdivia,Avenida Diego Portales,-41.475344,-72.94794,,,0,
319,,Avenida Diego Portales / Talcahuano,Avenida Diego Portales,-41.474626,-72.947026,,,0,
320,,Avenida Diego Portales / Chillán,Avenida Diego Portales,-41.473811,-72.944365,,,0,
321,,Avenida Diego Portales / Talca,Avenida Diego Portales,-41.473531,-72.943305,,,0,
322,,Avenida Diego Portales / Guillermo Gallardo,Avenida Diego Portales,-41.472963,-72.940489,,,0,
323,,Mall Paseo Costanera,Avenida Juan Soler Manfredini / Avenida España,-41.473015748013,-72.937563309193,,,0,
324,,Ruinas Muelle Antiguo,Avenida Juan Soler Manfredini / Río Puelche,-41.474965,-72.921197,,,0,
325,"",Balneario Pelluco,Avenida Juan Soler Manfredini / Inés Gallardo,-41.488526861832,-72.89926338525,,"",0,
326,"",Carretera Austral / Barlovento,Carretera Austral,-41.48994409168,-72.891056512897,,"",0,
327,"",Regimiento / Villa Santa Teresita,Regimiento,-41.486945981479,-72.88878574107,,"",0,
328,"",Colegio San Javier,"",-41.484862,-72.890914093254,,"",0,
329,"",Regimiento / Villa Santa Teresita,Regimiento,-41.487203907477,-72.888771050263,,"",0,
330,,Avenida Juan Soler Manfredini / Río Puelche,Avenida Juan Soler Manfredini,-41.474802,-72.922469,,,0,
331,,Avenida Diego Portales / San Martín,Avenida Diego Portales,-41.472682,-72.940369,,,0,
332,,Avenida Angelmó / Miraflores,Avenida Angelmó,-41.4804305931614,-72.9547826908073,,,0,
333,,Avenida Angelmó / Avenida Pacheco Altamirano,Avenida Angelmó,-41.4847410932935,-72.9632175595245,,,0,
334,,Avenida Pacheco Altamirano / San Ignacio,Avenida Pacheco Altamirano,-41.4861961183091,-72.966916338623,,,0,
335,,Universidad De Los Lagos,Avenida Pacheco Altamirano Km 6,-41.4930379546421,-72.9862603422584,,,0,
336,,Muelle Skorpios,,-41.503349,-72.995561,,,0,
337,,Avenida Chinquihue Km 9. 99,,-41.512193,-73.000756,,,0,
338,,Terminal Llegada Panitao Alto,Camino Panitao,-41.5367530900272,-73.0517808981475,,,0,
341,,Palena,,-43.617312,-71.804706,,,0,
343,"",Futaleufú,"",-43.18573,-71.867192,,"",0,
348,,Chaitén,Viejo,-42.918266,-72.710039,,,0,
349,,La Quema,,-40.623915,-72.760373,,,0,
350,,Rucatayo,,-40.627771,-72.719974,,,0,
351,,El Encanto,,-40.729999,-72.465452,,,0,
352,,Pichi Damas,,-40.6137468555785,-72.8069462625656,,,0,
353,,Haras Doña Ines,,-40.594673,-73.071739,,,0,
354,,Cuche,,-40.605252,-73.045714,,,0,
355,,La Poza,,-40.601697,-72.855468,,,0,
356,"",Fdas,"",-40.707393048005,-72.327962618517,,"",0,
357,,El Encanto,,-40.730115,-72.465621,,,0,
358,,Pilmaiquén,,-40.653206,-72.660124,,,0,
359,,Hotel Termas De Puyehue,,-40.707682,-72.328125,,,0,
360,,Los Copihues,,-40.708721,-72.514765,,,0,
361,,Los Negros,,-40.6024640887875,-72.8649476478157,,,0,
362,,Avenida Alcalde Alberto Fuschlocher / Con Con,,-40.5834606294872,-73.0931303730163,,,0,
363,,Fogon Las Leñas,,-40.684656,-72.585679,,,0,
364,,Termas De Puyehue,,-40.710343,-72.326125,,,0,
365,,Polloico,,-40.6014052768917,-72.9906724662704,,,0,
366,,Aguas Calientes,,-40.735433,-72.308173,,,0,
367,,Las Ruedas,,-40.5943514862562,-72.9701944404754,,,0,
368,,La Valenciana,,-40.683175,-72.566278,,,0,
369,,Aguas Calientes,,-40.735332,-72.308141,,,0,
370,,La Valenciana,,-40.683053,-72.566264,,,0,
371,,Lino,,-40.60067,-72.891032,,,0,
372,,Moncopulli,,-40.608472,-72.823384,,,0,
373,,Reten Eleuterio Ramirez,,-40.591159,-72.948693,,,0,
374,,Fogon Las Leñas,,-40.684739,-72.585522,,,0,
375,,Las Lumas,,-40.591468,-72.953006,,,0,
376,,Los Copihues,,-40.709036,-72.514453,,,0,
377,,Hotel Termas De Puyehue,,-40.707582,-72.327868,,,0,
378,,Callejón Obando,,-40.593184155181,-72.920830025795,,,0,
379,,Los Alamos,,-40.696896,-72.360496,,,0,
380,,Agua Buena,,-40.591128,-72.936389,,,0,
381,,Escuela Puyehue,,-40.695988,-72.334919,,,0,
382,,Las Lumas,,-40.591317,-72.952962,,,0,
383,,Regimiento Puyehue,,-40.692352,-72.338811,,,0,
384,,La Poza,,-40.601793,-72.8558,,,0,
385,,Los Arrayanes,,-40.725803,-72.4425,,,0,
386,,Regimiento Puyehue,,-40.692234,-72.338704,,,0,
387,,Pilmaiquén,,-40.653104,-72.660008,,,0,
388,,Las Ruedas,,-40.5943579174249,-72.9706611484795,,,0,
389,,Los Negros,,-40.602635,-72.865058,,,0,
390,,Moncopulli,,-40.608581,-72.823427,,,0,
391,,Ñilque,,-40.722683,-72.425294,,,0,
392,,Los Alamos,,-40.696797,-72.36068,,,0,
393,,Rucatayo,,-40.627662,-72.719388,,,0,
394,,Polloico,,-40.6012388392083,-72.9908212675285,,,0,
395,,Lino,,-40.600734,-72.891319,,,0,
396,,Parque Nacional Puyehue,Anticura,-40.681927,-71.98844,20,,0,
397,,Pichi Damas,,-40.6138469747884,-72.8072883938484,,,0,
398,,Escuela Puyehue,,-40.696048,-72.335065,,,0,
399,,Ñilque,,-40.722617,-72.425665,,,0,
400,,La Quema,,-40.6237179259798,-72.7603754110451,,,0,
401,,Cuche,,-40.605135,-73.045382,,,0,
402,,Agua Buena,,-40.591011,-72.936184,,,0,
403,,Termas De Puyehue,,-40.71041,-72.32626,21,,0,
404,,Terminal Mercado Osorno,,-40.572762,-73.128696,23,,0,
405,,Terminal Entre Lagos,,-40.682835,-72.599346,22,,0,
406,,Escuela Rural Los Pellines,,-40.6161814684121,-72.7967591987419,,,0,
407,,Los Arrayanes,,-40.725682,-72.442517,,,0,
408,,Escuela Rural Los Pellines,,-40.6160111892378,-72.7968434060821,,,0,
409,,Retorno Aeropuerto,,-40.5976991097836,-73.0659545128975,,,0,
410,,Reten Eleuterio Ramirez,,-40.591291,-72.948648,,,0,
411,"",Isla Apiao Ostricultura,"",-42.620148,-73.218029,,"",0,
413,,Achao Rampa,"",-42.468856,-73.490639,,,0,
414,,Terminal De Buses Línea 7,,-40.566084,-73.117133,,,0,
415,,Hazaña Indígena / Gabriel Flores,,-40.56556,-73.114638,,,0,
416,,Hazaña Indígena / Juan De Ubera,,-40.565244,-73.112764,,,0,
417,,El Monasterio / Virgen Del Socorro,,-40.567925,-73.113737,,,0,
418,,César Ercilla / Luis Emilio Recabarren,,-40.575497,-73.111445,,,0,
419,,Julio Buschman / Pedro Aguirre Cerda,,-40.576102,-73.114047,,,0,
420,,Patricio Lynch / Manuel Montt,,-40.575262,-73.117381,,,0,
421,,Patricio Lynch / José Manuel Balmaceda,,-40.574865,-73.118831,,,0,
422,,Patricio Lynch / Andrés Bello,,-40.574494,-73.120792,,,0,
423,,Patricio Lynch / Angúlo,,-40.574355,-73.12389,,,0,
424,,Cristóbal Colón / Patricio Lynch,,-40.573799,-73.127625,,,0,
425,,Los Carrera / Arturo Prat,,-40.572043,-73.13013,,,0,
426,,Los Carrera / Ramón Freire,,-40.572008,-73.13096,,,0,
427,,Los Carrera / Lord Cochrane,,-40.57185,-73.134135,,,0,
428,,Los Carrera / Manuel Antonio Matta,,-40.571839,-73.134376,,,0,
429,,Los Carrera / Bernardo O`Higgins,,-40.571692,-73.137645,,,0,
430,,Los Carrera / Manuel Bulnes,,-40.571679,-73.137948,,,0,
431,,Guillermo Francke / Julio Montt,,-40.569794,-73.146362,,,0,
432,,Guillermo Francke / Los Tigres,,-40.568517,-73.147023,,,0,
433,,Héroes De La Concepción / Chañaral,,-40.565648,-73.151729,,,0,
434,,Héroes De La Concepción / Chapiquiña,,-40.562962,-73.152441,,,0,
435,,Héroes De La Concepción / Potrerillos,,-40.562109,-73.152413,,,0,
436,,Los Laureles / Los Cafelates,,-40.551046,-73.160754,,,0,
437,,Los Boldos / Los Piñones,,-40.552115,-73.158787,,,0,
438,,Los Boldos / Los Damascos,,-40.555413,-73.156746,,,0,
439,,Los Pellines / Héroes De La Concepción,,-40.560528,-73.152763,,,0,
440,,Héroes De La Concepción / Paipote,,-40.564396,-73.152395,,,0,
441,,Héroes De La Concepción / Los Algarrobos,,-40.565467,-73.152043,,,0,
442,,Héroes De La Concepción / Chucumata,,-40.568047,-73.149418,,,0,
443,,Guillermo Francke / Machalí,,-40.568662,-73.147152,,,0,
444,,Guillermo Francke / Julio Montt,,-40.570371,-73.146113,,,0,
445,,Francisco Bilbao / Portales,,-40.575711,-73.13919,,,0,
446,,Francisco Bilbao / Manuel Bulnes,,-40.575743,-73.138603,,,0,
447,,Francisco Bilbao / Bernardo O´Higgins,,-40.575876,-73.135907,,,0,
448,,Francisco Bilbao / Manuel Antonio Matta,,-40.575911,-73.135051,,,0,
449,,Francisco Bilbao / Ramón Freire,,-40.576047,-73.132064,,,0,
450,,Cristóbal Colón / Juan Mackenna,,-40.575517,-73.12791,,,0,
451,,Errázuriz / Cristóbal Colón,,-40.573325,-73.126551,,,0,
452,,Errázuriz / Angúlo,,-40.573682,-73.1239,,,0,
453,,Errázuriz / José Victorino Lastarria,,-40.57378,-73.121415,,,0,
454,,Errázuriz / José Manuel Balmaceda,,-40.573888,-73.118667,,,0,
455,,Luis Emilio Recabarren / Pedro Aguirre Cerda,,-40.574596,-73.113164,,,0,
456,,César Ercilla / Los Carrera,,-40.574188,-73.11076,,,0,
457,,Virgen Del Socorro / El Monasterio,,-40.568007,-73.113356,,,0,
458,,Terminal Municipal De Buses Puerto Montt,Diego Portales / Eusebio Lilo,-41.477348,-72.950419,67,,0,
462,,Panamericana Sur / Pasaje Tres,,-41.458334,-72.95436,,,0,
463,,Panamericana Norte / Canal Beagle,,-41.455911,-72.954519,,,0,
464,,Ruta 5 Sur / Empresas De Transporte J. Bustamante,,-41.379885,-72.96865,,,0,
465,,Ruta 5 Sur / Empresas De Transporte J. Bustamante,,-41.37996,-72.969467,,,0,
466,,San Francisco / Colón,,-41.32419,-72.985426,,,0,
467,,Del Salvador / Santa Rosa,,-41.318095,-72.984071,68,,0,
468,,Gramado / San Bernardo,,-41.317021,-72.986248,,,0,
469,,Gramado / Lago Llanquihue,,-41.317663,-72.995455,,,0,
470,,San Bernardo / Walker Martinez,,-41.316426,-72.98575,,,0,
471,"",Vicente Pérez Rosales,Fabrica Cecinas Llanquihue,-41.268822,-73.001539,,"",0,
472,"",Vicente Pérez Rosales,Fabrica Cecinas Llanquihue,-41.2685,-73.001348,,"",0,
473,"",Vicente Pérez Rosales / Avenida Presidente Jorge Alessandri,"",-41.261593,-73.001842,,"",0,
474,"",Vicente Pérez Rosales / Avenida Presidente Jorge Alessandri,"",-41.261851,-73.001493,,"",0,
475,"",Vicente Pérez Rosales / Regidor Gerado Werner,"",-41.2568,-73.005461,,"",0,
476,,Vicente Pérez Rosales / Llanquihue,,-41.258159,-73.005493,69,,0,
477,"",Manuel Antonio Matta / Valdivieso,"",-41.25548,-73.016289,,"",0,
478,"",Manuel Antonio Matta / Valdivieso,"",-41.255481,-73.016194,,"",0,
480,"",Isla Lin - Lin Curaco,"",-42.400882,-73.426108,,"",0,
481,,Achao Rampa,"",-42.468856,-73.490639,,,0,
482,"",Isla Chaulinec Capilla Antigua,"",-42.633273,-73.270279,,"",0,
484,,Achao Rampa,"",-42.468856,-73.490639,,,0,
485,"",Terminal Línea 1,"",-41.879523,-73.833158,,"",0,
486,"",Camino Lechagua / Practicante Silva,"",-41.879997,-73.832644,,"",0,
487,"",Camino Lechagua / Blest Riffo,"",-41.879371,-73.83151,,"",0,
488,"",Avda. Salvador Allende / German Kompatzki,"",-41.875188,-73.827839,,"",0,
489,"",Dieciocho / Libertad,"",-41.866984,-73.828839,,"",0,
490,"",Dieciocho / Pedro Montt,"",-41.867165,-73.826593,,"",0,
491,"",Pedro Montt / Arturo Prat,"",-41.867041,-73.825716,,"",0,
492,"",Almirante Latorre / Cristobal Colon,"",-41.868232,-73.813341,,"",0,
493,"",Arturo Prat / Marcos Vera,"",-41.871054,-73.809993,,"",0,
494,"",Calle Nueva / El Esfuerzo,,-41.875753982943,-73.8063902797622,,"",0,
495,"",Caicumeo / Los Aromos,,-41.8783199240177,-73.8055326908074,,"",0,
496,"",Avda. Pacífico / Caicumeo,"",-41.880028,-73.804724,,"",0,
497,"",Avda. Pacífico / El Mirador Del Golfo,"",-41.879995,-73.806647,,"",0,
498,"",Avda. Pacífico / La Paz,,-41.8796079762943,-73.8081896441803,,"",0,
499,"",Caicumeo / Nelson Bustamante,"",-41.874802,-73.81493,,"",0,
500,"",Caicumeo / Balmaceda,"",-41.873125,-73.817983,,"",0,
501,"",Pudeto / Goycolea,"",-41.869631,-73.824302,,"",0,
502,"",Pudeto / Pedro Montt,"",-41.86879,-73.826615,,"",0,
503,"",Pudeto / Blanco Encalada,"",-41.867991,-73.827944,,"",0,
504,"",Blanco Encalada / Arturo Prat,,-41.8666370102331,-73.8272169153442,,"",0,
505,"",Las Rosas / Los Girasoles,"",-41.860864,-73.812918,,"",0,
506,"",Los Jazmines / Las Amapolas,"",-41.860216,-73.812523,,"",0,
507,"",José Fructuoso Vargas / Madre Paulina Mallinckrodt,,-41.8602179929274,-73.8174191018524,,"",0,
508,"",Kurt Haarmann / Calle Tres,"",-41.862164,-73.819741,,"",0,
509,"",Antonio Burr / Juanita Aguilo,"",-41.862751,-73.822839,,"",0,
510,"",Gral. Baquedano / San Antonio,"",-41.863097,-73.827545,,"",0,
511,"",Gral. Baquedano / Huaihuén,"",-41.864721,-73.827634,,"",0,
512,"",Anibal Pinto / Pedro Montt,"",-41.868569,-73.825902,,"",0,
513,"",Anibal Pinto / Goycolea,"",-41.869049,-73.823609,,"",0,
514,"",Aníbal Pinto / Marcos Vera,,-41.871791932039,-73.8108961779099,,"",0,
515,"",Aníbal Pinto / Vista Al Mar,,-41.8733839778503,-73.8033301951066,,"",0,
516,"",Padre Alberto Hurtado / Ruta 5,,-41.8810549849574,-73.7965987374344,,"",0,
517,"",Aníbal Pinto / Charly Delta,,-41.8734729251856,-73.8027000380287,,"",0,
518,"",Almirante Latorre / Del Cerro,"",-41.868042,-73.813796,,"",0,
519,"",Almirante Latorre / Esmeralda,"",-41.867259,-73.816571,,"",0,
520,"",Almirante Latorre / Pedro Montt,"",-41.865597,-73.824293,,"",0,
521,"",Avda. Salvador Allende / Ricardo Ortloff,"",-41.876877,-73.827652,,"",0,
522,"",Avda. Salvador Allende / Doctor Gonzalez Canessa,"",-41.878551,-73.829951,,"",0,
523,"",Francisco Puelma / Wolf Lorenz,"",-41.879197,-73.833544,,"",0,
524,"",Isla Apiao Capilla,"",-42.590792,-73.225212,,"",0,
525,"",Isla Caguach La Capilla,"",-42.510966,-73.266794,,"",0,
526,"",Achao Rampa,"",-42.468856,-73.490639,,"",0,
527,"",Terminal Línea 1,"",-43.110884,-73.563078,,"",0,
528,"","Camino San Antonio Km. 2, 6","",-43.116151,-73.573741,,"",0,
529,"","Camino San Antonio Km. 2, 5","",-43.116618,-73.575418,,"",0,
530,"","Camino San Antonio Km. 2, 2","",-43.117509,-73.578805,,"",0,
531,"","Camino San Antonio Km. 2, 0","",-43.11746,-73.581825,,"",0,
532,"","Camino San Antonio Km. 1, 5","",-43.117276,-73.587653,,"",0,
533,"","Camino San Antonio Km. 1, 1","",-43.118139,-73.591665,,"",0,
534,"","Camino San Antonio Km. 0, 3",,-43.1173921999486,-73.6006300552253,,"",0,
535,"","Camino San Antonio Km. 0, 1",,-43.1171685368883,-73.6029792797623,,"",0,
536,"",Juan Ladrilleros / Independencia,"",-43.117727,-73.610604,,"",0,
537,"",Carlos Flaig Zurita / El Pudú,,-43.112778573364,-73.6149116441803,,"",0,
538,"",Doctor Ahues / Freire,"",-43.115418,-73.616555,,"",0,
539,"",Juan Ladrilleros / Freire,"",-43.117462,-73.617406,,"",0,
540,"",Agustin Gómez García / Juan Ladrilleros,,-43.1175476630937,-73.6212394662705,,"",0,
541,"",Pedro Aguirre Cerda / Capitán Luis Alcazar,"",-43.120353,-73.62233,,"",0,
542,"","Camino Punta De Lapas Km. 1, 8",,-43.1300347246343,-73.6428406441803,,"",0,
543,"",Punta De Lapas,"",-43.138078,-73.617426,,"",0,
544,"","Camino Punta De Lapas Km. 3, 2",,-43.1314024255722,-73.6271922037048,,"",0,
545,"","Camino Punta De Lapas Km. 2, 4",,-43.1313284468407,-73.6367406319466,,"",0,
546,"","Camino Punta De Lapas Km. 1, 6",,-43.1279101749171,-73.6433543521844,,"",0,
547,"","Camino Punta De Lapas Km. 1, 4",,-43.1257888134616,-73.6433198098564,,"",0,
548,"","Camino Punta De Lapas Km. 1, 1",,-43.1231850030265,-73.6428487754631,,"",0,
549,"","Camino Punta De Lapas Km. 0, 6",,-43.1199203500947,-73.639650588955,,"",0,
550,"","Camino Punta De Lapas Km. 0, 3","",-43.118059,-73.636327,,"",0,
551,"",Juan Ladrilleros / Pasaje 4,"",-43.11697,-73.626918,,"",0,
552,"",Juan Ladrilleros / Balmaceda,"",-43.11725,-73.625191,,"",0,
553,"",Juan Ladrilleros / Ibañez,"",-43.11732,-73.623362,,"",0,
554,"",Juan Ladrilleros / La Paz,"",-43.117478,-73.619395,,"",0,
555,"",Juan Ladrilleros / Freire,"",-43.117563,-73.617477,,"",0,
556,"",Galvarino Riveros / Juan Ladrilleros,"",-43.117567,-73.612257,,"",0,
557,"",Juan Ladrilleros / Independencia,,-43.1178990311466,-73.6103863263893,,"",0,
558,"",Adan Bustamante / Pasaje 2,"",-43.117935,-73.607612,,"",0,
559,"",Camino San Antonio / Adan Bustamante,,-43.1164747278142,-73.6045627582665,,"",0,
560,"","Camino San Antonio Km. 0, 8",,-43.1180577782604,-73.59486056316,,"",0,
561,"","Camino San Antonio Km. 2, 0","",-43.117652,-73.580994,,"",0,
562,"","Camino San Antonio Km. 2, 5","",-43.116764,-73.575493,,"",0,
563,"","Camino San Antonio Km. 3, 1","",-43.113611,-73.568457,,"",0,
565,"",Los Artesanos / German Triviño,,-43.1099769162575,-73.6173056355819,,"",0,
566,"",Los Artesanos / German Triviño,,-43.1098858743951,-73.6174944748687,,"",0,
567,"",Progreso / Los Cultores,,-43.1121277549324,-73.6175546908073,,"",0,
568,"",Progreso / Los Cultores,,-43.1121882516535,-73.6177568392869,,"",0,
569,"",Isla Meulin El Transito,"",-42.431705,-73.337265,,"",0,
571,,Achao Rampa,"",-42.468856,-73.490639,,,0,
572,"",Isla Teuquelin,"",-42.461935,-73.249292,,"",0,
574,,Achao Rampa,"",-42.468856,-73.490639,,,0,
575,"",Isla Alao Capilla,"",-42.60491,-73.300889,,"",0,
577,,Achao Rampa,"",-42.468856,-73.490639,,,0,
578,,Terminal Línea 2,"",-42.4662,-73.788729,,,0,
579,,Héctor Márquez / Cipriano Osorio,"",-42.468982,-73.789479,,,0,
580,,Galvarino Riveros / Rubén Azocar,"",-42.465061,-73.790843,,,0,
581,,Galvarino Riveros / Francisco Oyarzún,,-42.4677930725679,-73.7866853091926,,,0,
582,,Galvarino Riveros / Caguach,"",-42.470105,-73.78239,,,0,
583,,Galvarino Riveros / Edmundo Pérez Zujovic,"",-42.471181,-73.779616,,,0,
584,,Galvarino Riveros / Gral. Baquedano,,-42.4737510649146,-73.773957974205,,,0,
585,,Galvarino Riveros / Pedro Bahamondes,,-42.4743915235311,-73.77290056316,,,0,
586,,Galvarino Riveros / El Canelo,,-42.47582280467,-73.769097067459,,,0,
587,,Bernardo O´Higgins / Sargento Aldea,,-42.4782480217803,-73.765361974205,,,0,
588,,Bernardo O´Higgins / Gamboa,,-42.4814489562372,-73.765262609787,,,0,
589,,Ruta 5 / Chacabuco,,-42.4843560991436,-73.7635221521149,,,0,
590,,Ruta 5 / Ubaldo Mancilla,,-42.4832666489849,-73.7734624699058,,,0,
591,,Ruta 5 / Nercón,"",-42.499136,-73.779793,,,0,
592,,Los Aromos / Ruta 5,"",-42.507964,-73.790041,,,0,
593,,Ruta 5 / Los Aromos,"",-42.508727,-73.790493,,,0,
594,,Ruta 5 / Nercón,"",-42.499863,-73.780639,,,0,
595,,Ruta 5 / Profesor Victor Gómez Sur,"",-42.496813,-73.772128,,,0,
596,,Ruta 5 / Profesor Victor Gómez Norte,"",-42.493656,-73.771873,,,0,
597,,Ruta 5 / Muñoz Gamero,,-42.4912221789946,-73.7727027962952,,,0,
598,,Ruta 5 / Zoilo Barrientos,,-42.4881755523734,-73.7731021607132,,,0,
599,,Ruta 5 / Ubaldo Mancilla,,-42.4832515831804,-73.7732203766518,,,0,
600,,Esmeralda / Blanco Encalada,,-42.4830330438633,-73.7634244785041,,,0,
601,,Ignacio Serrano / Blanco Encalada,,-42.482541978084,-73.7618254699058,,,0,
602,,Eleuterio Ramírez / San Martín,,-42.4792782835723,-73.763415927578,,,0,
603,,Galvarino Riveros / Condell,,-42.4758815426563,-73.7686665337295,,,0,
604,,Galvarino Riveros / Francisco Silva,,-42.4745894549709,-73.7721183091926,,,0,
605,,Galvarino Riveros / Gral. Baquedano,,-42.4735471081592,-73.774047656414,,,0,
606,"",Isla Quenac,"",-42.457049,-73.330439,,"",0,
608,,Achao Rampa,"",-42.468856,-73.490639,,,0,
609,,Terminal Municipal De Buses Puerto Montt,Diego Portales / Eusebio Lilo,-41.477348,-72.950419,37,,0,
610,,Caleta El Manzano,,-42.009633,-72.645829,31,,0,
611,,Pichicolo,,-42.005352,-72.596098,32,,0,
612,,Chaqueihua,,-41.925673,-72.422847,34,,0,
613,,Caleta Gonzalo,,-42.559068,-72.604573,38,,0,
614,,Chaitén,Viejo,-42.918266,-72.710039,39,,0,
615,,Fiordo Largo,,-42.545774,-72.52349,38,,0,
616,,Leptepu,,-42.488485,-72.436836,38,,0,
617,,Rampa Hornopirén,,-41.972188,-72.472337,33,,0,
618,"",El Varal,"",-41.971765,-72.663441,,"",0,
619,"",El Varal,"",-41.971827,-72.663565,,"",0,
620,"",Hornopirén,"",-41.966076,-72.470771,,"",0,
621,"",Hornopirén,"",-41.965623,-72.4705,,"",0,
622,"",Caleta La Arena,"",-41.692009,-72.642449,,"",0,
623,"",Caleta Puelche,"",-41.738781,-72.647481,,"",0,
624,"",Mañihueico,"",-41.765717,-72.678854,,"",0,
625,"",Mañihueico,"",-41.76581,-72.678746,,"",0,
626,"",Contao,"",-41.803573,-72.719125,,"",0,
627,"",Quildaco Alto,"",-41.904013,-72.679977,,"",0,
628,"",Quildaco Alto,"",-41.903905,-72.679904,,"",0,
629,"",Contao,"",-41.803785,-72.718569,,"",0,
633,,Achao Rampa,"",-42.468856,-73.490639,,,0,
634,"",Isla Lin - Lin Los Pinos,"",-42.386933,-73.44999,,"",0,
635,,Terminal Municipal De Buses Puerto Montt,Diego Portales / Eusebio Lilo,-41.477348,-72.950419,,,0,
636,,Ruta 5 Sur / Empresas De Transporte J. Bustamante,"",-41.379885,-72.96865,,,0,
637,,Ruta 5 Sur / Empresas De Transporte J. Bustamante,"",-41.37996,-72.969467,,,0,
638,,Ruta 5 Sur V - 500,"",-41.06324,-73.093226,,,0,
639,,Ruta 5 Sur / Casma,Regreso Pto. Montt,-41.00951,-73.120786,,,0,
640,,Ruta 5 Sur / Casma,,-41.006397,-73.11973,,,0,
641,,Ruta 5 Sur / Del Copihue,Regreso Pto. Montt,-40.990717,-73.124177,,,0,
642,,Ruta 5 Sur / Del Copihue,,-40.9906,-73.123771,,,0,
643,,Ruta 5 Sur / Corte Alto,,-40.944141,-73.138788,,,0,
644,,Ruta 5 Sur / Corte Alto,,-40.943997,-73.138384,,,0,
645,,Ruta 5 Sur / Purranque Sur,Regreso Pto. Montt,-40.915077,-73.147878,,,0,
646,,Ruta 5 Sur / Purranque Sur,,-40.915023,-73.147491,,,0,
647,,Ruta 5 Sur / Purranque Norte,Purranque,-40.911991,-73.14883,,,0,
648,,Ruta 5 Sur / Purranque Norte,Purranque,-40.911857,-73.148481,,,0,
649,,Ruta 5 Sur / Río Negro,Regreso Pto. Montt,-40.812584,-73.168512,,,0,
650,,Ruta 5 Sur / Río Negro,,-40.811701,-73.167838,,,0,
651,,Ruta 5 Sur / Río Negro Medio,Regreso Pto. Montt,-40.800016,-73.165451,,,0,
652,,Ruta 5 Sur / Regimiento Sangra,,-41.398725,-72.95984,,,0,
653,,Ruta 5 Sur / Regimiento Sangra,Regimiento Sangra Pto. Varas,-41.398846,-72.960318,,,0,
654,,Ruta 5 Sur / Pellines,Regreso Pto. Montt,-41.192312,-73.069492,,,0,
655,,Ruta 5 Sur / Pellines,,-41.191585,-73.069505,,,0,
656,,Ruta 5 Sur / Río Negro Medio,,-40.79819,-73.164601,,,0,
657,,Ruta 5 Sur / Río Negro Norte,,-40.791973,-73.163213,,,0,
658,,Ruta 5 Sur / Río Negro Norte,,-40.790813,-73.163283,,,0,
659,,Ruta 5 Sur / Cancura,,-40.758378,-73.155064,,,0,
660,,Ruta 5 Sur / Cancura,,-40.756428,-73.155013,,,0,
661,,Ruta 5 Sur / Chahuilco,Regreso Pto. Montt,-40.737229,-73.150345,,,0,
662,,Ruta 5 Sur / Pichil,,-40.696058,-73.132774,,,0,
663,,Ruta 5 Sur / Pichil,,-40.69244,-73.131113,,,0,
664,,Ruta 5 Sur / Osorno Sur,,-40.654949,-73.119231,,,0,
665,,Ruta 5 Sur / Osorno Sur,,-40.652831,-73.118165,,,0,
666,,Terminal De Buses Osorno,"",-40.572978,-73.125653,,,0,
667,,Terminal Municipal De Buses Puerto Montt,Diego Portales / Eusebio Lilo,-41.477348,-72.950419,,,0,
668,,Ruta 5 Sur / Empresas De Transporte J. Bustamante,"",-41.379885,-72.96865,,,0,
669,,Ruta 5 Sur / Empresas De Transporte J. Bustamante,"",-41.37996,-72.969467,,,0,
670,,Ruta 5 Sur V - 500,"",-41.06324,-73.093226,,,0,
671,,Ruta 5 Sur / Casma,Regreso Pto. Montt,-41.00951,-73.120786,,,0,
672,,Ruta 5 Sur / Casma,,-41.006397,-73.11973,,,0,
673,,Ruta 5 Sur / Del Copihue,Regreso Pto. Montt,-40.990717,-73.124177,,,0,
674,,Ruta 5 Sur / Del Copihue,,-40.9906,-73.123771,,,0,
675,,Ruta 5 Sur / Corte Alto,,-40.944141,-73.138788,,,0,
676,,Ruta 5 Sur / Corte Alto,,-40.943997,-73.138384,,,0,
677,,Ruta 5 Sur / Purranque Sur,Regreso Pto. Montt,-40.915077,-73.147878,,,0,
678,,Ruta 5 Sur / Purranque Sur,,-40.915023,-73.147491,,,0,
679,,Ruta 5 Sur / Purranque Norte,Purranque,-40.911991,-73.14883,,,0,
680,,Ruta 5 Sur / Purranque Norte,Purranque,-40.911857,-73.148481,,,0,
681,,Ruta 5 Sur / Río Negro,Regreso Pto. Montt,-40.812584,-73.168512,,,0,
682,,Ruta 5 Sur / Río Negro,,-40.811701,-73.167838,,,0,
683,,Ruta 5 Sur / Río Negro Medio,Regreso Pto. Montt,-40.800016,-73.165451,,,0,
684,,Ruta 5 Sur / Regimiento Sangra,,-41.398725,-72.95984,,,0,
685,,Ruta 5 Sur / Regimiento Sangra,Regimiento Sangra Pto. Varas,-41.398846,-72.960318,,,0,
686,,Ruta 5 Sur / Pellines,Regreso Pto. Montt,-41.192312,-73.069492,,,0,
687,,Ruta 5 Sur / Pellines,,-41.191585,-73.069505,,,0,
688,,Ruta 5 Sur / Río Negro Medio,,-40.79819,-73.164601,,,0,
689,,Ruta 5 Sur / Río Negro Norte,,-40.791973,-73.163213,,,0,
690,,Ruta 5 Sur / Río Negro Norte,,-40.790813,-73.163283,,,0,
691,,Ruta 5 Sur / Cancura,,-40.758378,-73.155064,,,0,
692,,Ruta 5 Sur / Cancura,,-40.756428,-73.155013,,,0,
693,,Ruta 5 Sur / Chahuilco,Regreso Pto. Montt,-40.737229,-73.150345,,,0,
694,,Ruta 5 Sur / Pichil,,-40.696058,-73.132774,,,0,
695,,Ruta 5 Sur / Pichil,,-40.69244,-73.131113,,,0,
696,,Ruta 5 Sur / Osorno Sur,,-40.654949,-73.119231,,,0,
697,,Ruta 5 Sur / Osorno Sur,,-40.652831,-73.118165,,,0,
698,,Terminal De Buses Osorno,"",-40.572978,-73.125653,,,0,
699,,Terminal Frutillar,,-41.124758,-73.060268,,,0,
700,,Ruta 5 Sur V - 500,,-41.062545,-73.093114,,,0,
701,,Ruta 5 Sur / Chahuilco,,-40.734466,-73.149203,,,0,
702,,Terminal Municipal De Buses Puerto Montt,Diego Portales / Eusebio Lilo,-41.477348,-72.950419,,,0,
734,,Carretera Austral / Camino Lintz,"",-41.490396826092,-72.886437775463,,,0,
735,,Carretera Austral / Cuarta Terraza,,-41.490759,-72.875911,,,0,
736,,Carretera Austral / Salida Coihuín,"",-41.483575,-72.850734,,,0,
737,,Carretera Austral / Puente Chamiza,,-41.483103,-72.84583,,,0,
738,,Carretera Austral / Entrada Piedra Azul,,-41.503418,-72.801676,,,0,
739,,Carretera Austral / Piedra Azul,,-41.513368,-72.781145,,,0,
740,,Carretera Austral / Entrada Quillaipe,,-41.527432,-72.74096,,,0,
741,,Carretera Austral / Playa Quillaipe,"",-41.543208,-72.731263,,,0,
742,,Carretera Austral / Los Arrayanes,"",-41.546066,-72.728951,,,0,
743,,Carretera Austral / Bahía Quillaipe,"",-41.54817,-72.72799,,,0,
744,,Carretera Austral / Estación De Salud Quillaipe,,-41.556017,-72.732187,,,0,
745,,Carretera Austral / Entrada Metri,,-41.580513,-72.718367,,,0,
746,,Carretera Austral / Salida Metri,,-41.594253,-72.703509,,,0,
747,,Carretera Austral / Lenca,,-41.603693,-72.692014,,,0,
748,,Carretera Austral / Puente Lenca,,-41.606645,-72.682298,,,0,
749,,Carretera Austral / Camino Parque Nacional Alerce Andino,,-41.608912,-72.671682,,,0,
750,,Carretera Austral / Puente Chaicas,,-41.614069,-72.659784,,,0,
751,,Carretera Austral / Entrada Chaicas,,-41.622847,-72.661268,,,0,
752,,Carretera Austral / Escuela Rural Chaicas,,-41.627286,-72.665745,,,0,
753,,Carretera Austral / Chaicas Centro,"",-41.63276,-72.667829,,,0,
754,,Carretera Austral / Entrada Caleta La Arena,,-41.661199,-72.663393,,,0,
755,,Carretea Austral / Caleta La Arena,,-41.692328,-72.641686,,,0,
756,,Carretera Austral / Salida Caleta La Arena,,-41.664059,-72.661693,,,0,
757,,Carretera Austral / Entrada Chaicas,,-41.637312,-72.668588,,,0,
758,,Carretera Austral / Chaicas Centro,"",-41.631019,-72.666043,,,0,
759,,Carretera Austral / Escuela Rural Chaicas,,-41.628144,-72.665974,,,0,
760,,Carretera Austral / Salida Chaicas,,-41.622342,-72.660369,,,0,
761,,Carretera Austral / Puente Chaicas,,-41.613638,-72.65998,,,0,
762,,Carretera Austral / Camino Parque Nacional Alerce Andino,,-41.608487,-72.671696,,,0,
763,,Carretera Austral / Puente Lenca,,-41.606441,-72.682501,,,0,
764,,Carretera Austral / Lenca Sur,"",-41.605487,-72.685641,,,0,
765,,Carretera Austral / Metri,,-41.591329,-72.70174,,,0,
766,,Carretera Austral / Escuela Metri,,-41.587805,-72.701653,,,0,
767,,Carretera Asutral / Escuela Metri,,-41.588073,-72.702286,,,0,
768,,Carretera Austral / Salida Metri,,-41.588841,-72.706001,,,0,
769,,Carretera Asutral / Entrada Quillaipe,,-41.575489,-72.722758,,,0,
770,,Carretera Austral / Quillaipe Sur,"",-41.572333,-72.724194,,,0,
771,,Carretera Austral / Quillaipe,,-41.564842,-72.729271,,,0,
772,,Carretera Austral / Playa Quillaipe,"",-41.542701,-72.73118,,,0,
773,,Carretera Austral / Salida Quillaipe,,-41.52607,-72.746797,,,0,
774,,Carretera Austral / Pichiquillaipe,,-41.522286,-72.76298,,,0,
775,,Carretera Austral / Entrada Piedra Azul,,-41.519403,-72.769657,,,0,
776,,Carretera Austral / Liceo Piedra Azul,,-41.516648,-72.775299,,,0,
777,,Carretera Austral / Piedra Azul,,-41.511469,-72.784843,,,0,
778,,Carretera Austral / Piedra Azul Centro,"",-41.508282,-72.790405,,,0,
779,,Carretera Austral / Salida Piedra Azul,,-41.498498,-72.808515,,,0,
780,,Carretera Austral / Entrada Chamiza,,-41.490667,-72.815765,,,0,
781,,Carretera Austral / Chamiza,"",-41.483014,-72.833432,,,0,
782,,Carretera Austral / Marine Harvest,"",-41.482892,-72.839177,,,0,
783,,Carretera Austral / Entrada Coihuín,"",-41.48345,-72.850733,,,0,
784,,Carretera Austral / Coihuín,"",-41.483729,-72.852251,,,0,
785,,Carretera Austral / Las Toninas,"",-41.486255,-72.861635,,,0,
786,,Carretera Austral / Pelluhuín,"",-41.48648,-72.864637,,,0,
787,,Carretera Austral / Salida Coihuín,"",-41.486421,-72.868646,,,0,
788,"",Carretera Austral / Lenca,"",-41.603504,-72.691937,,"",0,
789,"",Isla Meulin San Francisco,"",-42.416547,-73.30832,,"",0,
791,,Achao Rampa,"",-42.468856,-73.490639,,,0,
792,,Puerto De Puerto Montt,Angelmó 1673,-41.484866,-72.959626,,,0,
793,,Ayacara,,-42.317466,-72.787037,,,0,
794,,Rampa Chaitén,,-42.911793,-72.718137,,,0,
799,"",Rampa Quellón,"",-43.120364343559,-73.625425457867,,"",0,
801,,Pargua,Rampa Pargua,-41.792775,-73.458981,,,0,
802,,Chacao,Rampa Chacao,-41.829126,-73.515615,,,0,
803,,Caleta Puelche,"",-41.738781,-72.647481,,,0,
804,,Caleta La Arena,"",-41.692009,-72.642449,,,0,
805,,Caleta Puelche,"",-41.738781,-72.647481,,,0,
806,,Caleta La Arena,"",-41.692009,-72.642449,,,0,
807,,Fiordo Largo,,-42.545774,-72.52349,,,0,
808,,Caleta Gonzalo,,-42.559068,-72.604573,,,0,
810,,Rampa Hornopirén,,-41.972188,-72.472337,,,0,
811,,Leptepu,,-42.488485,-72.436836,,,0,
814,,Terminal Municipal De Buses Puerto Montt,,-41.477348,-72.950419,41,,0,
817,,Avenida Presidente Salvador Allende / Avenida Parque Industrial,,-41.461181,-72.954643,41,,0,
818,,Panamericana Sur / Pasaje Tres,,-41.458334,-72.95436,41,,0,
819,,Panamericana Norte / Canal Beagle,,-41.455911,-72.954519,41,,0,
820,,Ruta 5 Sur / Regimiento Sangra,Regreso Pto. Montt,-41.398846,-72.960318,41,,0,
821,,Ruta 5 Sur / Regimiento Sangra,,-41.398725,-72.95984,41,,0,
822,,Ruta 5 Sur / Empresas De Transporte J. Bustamante,Regreso Pto. Montt,-41.37996,-72.969467,42,,0,
823,,Ruta 5 Sur / Empresas De Transporte J. Bustamante,,-41.379885,-72.96865,42,,0,
824,,San Francisco / Colón,,-41.32419,-72.985426,42,,0,
825,,Del Salvador / Santa Rosa,,-41.318095,-72.984071,42,,0,
826,,Terminal De Puerto Chico,,-41.329411,-72.972433,42,,0,
827,,San Bernardo / Walker Martinez,,-41.316426,-72.98575,42,,0,
828,"",Avenida Mirador Poniente / Volcán Hornopirén,"",-41.344188,-72.944652,,"",0,
829,,Terminal Municipal De Buses Puerto Montt,Diego Portales / Eusebio Lilo,-41.477348,-72.950419,43,,0,
830,,Pargua,Rampa Pargua,-41.792775,-73.458981,45,,0,
831,,Chacao,Rampa Chacao,-41.829126,-73.515615,46,,0,
832,,Terminal Municipal De Castro,Sgto. Aldea / Gómez,-42.478556,-73.76294,47,,0,
833,,Terminal Municipal De Ancud,Marcos Vera / Arturo Prat,-41.871519,-73.810039,44,,0,
834,,Rampa Dalcahue,,-42.382058,-73.655404,48,,0,
835,,Terminal De Buses Achao,,-42.472216,-73.491615,49,,0,
836,,Rampa Isla Quinchao,,-42.388097,-73.655782,50,,0,
837,"",Isla Chaulinec La Villa,"",-42.626259,-73.298515,,"",0,
839,,Achao Rampa,"",-42.468856,-73.490639,,,0,
841,,Achao Rampa,"",-42.468856,-73.490639,,,0,
842,"",Isla Llingua,"",-42.43181,-73.446338,,"",0,
844,,Bahía Pargua / Bahía Queule,,-40.554046,-73.170791,,,0,
845,,Bahía Pargua / Pasaje Quillaipe,,-40.554997,-73.171622,,,0,
846,,La Misión / Bahía Mansa,,-40.556492,-73.171245,,,0,
847,,La Misión / Chauracahuin,,-40.559833,-73.166954,,,0,
848,,Chacarillas / Chauracahuin,,-40.561507,-73.172392,,,0,
849,,Camino U - 40 / Rosario,,-40.567683,-73.173291,,,0,
850,,Bellavista / Chorrillos,,-40.569383,-73.169705,,,0,
851,,República / Chillán,,-40.573989,-73.154627,,,0,
852,,República / Iquique,,-40.574242,-73.149158,,,0,
853,,República / Por La Razón O La Fuerza,,-40.574351,-73.147617,,,0,
854,,Francisco Bilbao / Portales,,-40.575711,-73.13919,,,0,
855,,Francisco Bilbao / Manuel Bulnes,,-40.575743,-73.138603,,,0,
856,,Francisco Bilbao / Bernardo O´Higgins,,-40.575876,-73.135907,,,0,
857,,Francisco Bilbao / Manuel Antonio Matta,,-40.575911,-73.135051,,,0,
858,,Francisco Bilbao / Ramón Freire,,-40.576047,-73.132064,,,0,
859,,Cristóbal Colón / Juan Mackenna,,-40.575517,-73.12791,,,0,
860,,Cristóbal Colón / Patricio Lynch,,-40.573799,-73.127625,,,0,
861,,Errázuriz / Cristóbal Colón,,-40.573325,-73.126551,,,0,
862,,Errázuriz / Angúlo,,-40.573682,-73.1239,,,0,
863,,Juan Mackenna / Brasil,,-40.575597,-73.119611,,,0,
864,,Juan Mackenna / Buenos Aires,,-40.576284,-73.115006,,,0,
865,,Amador Barrientos / Efraín Vásquez,,-40.581077,-73.109252,,,0,
866,,Argomedo / Aldea San Alberto Magno,,-40.581226,-73.106335,,,0,
867,,Argomedo / Juan Schuurman,,-40.579984,-73.105256,,,0,
868,,Argomedo / Julio Buschman,,-40.579172,-73.104551,,,0,
869,,Avenida Alcalde Alberto Fuschlocher / Guillermo Hollstein,,-40.580376,-73.100834,,,0,
870,,Avenida Alcalde Alberto Fuschlocher / Con Con,,-40.582945,-73.094832,,,0,
871,,Universidad De Los Lagos,,-40.586072,-73.089476,,,0,
872,,Avenida Alcalde Alberto Fuschlocher / Con Con,,-40.5834606294872,-73.0931303730163,,,0,
873,,Avenida Alcalde Alberto Fuschlocher / Eleodoro Vásquez,,-40.580161,-73.100617,,,0,
874,,Julio Buschman / Dieciocho De Septiembre,,-40.577413,-73.106752,,,0,
875,,Julio Buschman / Pedro Aguirre Cerda,,-40.576102,-73.114047,,,0,
876,,Patricio Lynch / Manuel Montt,,-40.575262,-73.117381,,,0,
877,,Patricio Lynch / José Manuel Balmaceda,,-40.574865,-73.118831,,,0,
878,,Patricio Lynch / Andrés Bello,,-40.574494,-73.120792,,,0,
879,,Patricio Lynch / Angúlo,,-40.574355,-73.12389,,,0,
880,,Los Carrera / Arturo Prat,,-40.572043,-73.13013,,,0,
881,,Los Carrera / Ramón Freire,,-40.572008,-73.13096,,,0,
882,,Los Carrera / Lord Cochrane,,-40.57185,-73.134135,,,0,
883,,Los Carrera / Manuel Antonio Matta,,-40.571839,-73.134376,,,0,
884,,Los Carrera / Bernardo O`Higgins,,-40.571692,-73.137645,,,0,
885,,Los Carrera / Manuel Bulnes,,-40.571679,-73.137948,,,0,
886,,Portales / Los Carrera,,-40.572127,-73.140436,,,0,
887,,Portales / Eleuterio Ramírez,,-40.5732,-73.140373,,,0,
888,,República / Por La Razón O La Fuerza,,-40.57414,-73.148156,,,0,
889,,República / Antofagasta,,-40.573969,-73.150652,,,0,
890,,República / Talca,,-40.573883,-73.151848,,,0,
891,,República / Chillán,,-40.573814,-73.154669,,,0,
892,,República / Victoria,"",-40.573908,-73.15823,,,0,
893,,Bellavista / Chorrillos,,-40.569432,-73.168118,,,0,
894,,Doce De Octubre / Sevilla,,-40.566405,-73.16862,,,0,
895,,Doce De Octubre / Madrid,,-40.566464,-73.167757,,,0,
896,,Doce De Octubre / La Misión,,-40.566346,-73.165954,,,0,
897,,Caupolicán / Uno De Mayo,,-40.569221,-73.160611,,,0,
898,,Juan Estéban Montero / Victoria,,-40.571865,-73.157891,,,0,
899,,Victoria / República,,-40.573203,-73.157713,,,0,
900,,Arturo Prat / Barros Araña,,-40.58157,-73.128798,,,0,
901,,Doctor Guillermo Buhler / Los Conquistadores,,-40.584228,-73.128701,,,0,
902,,Doctor Guillermo Buhler / Hospital Del Trabajador,,-40.586704,-73.127961,,,0,
903,,Hospital Osorno,,-40.587341,-73.127094,,,0,
904,,César Ercilla / Doctor Guillermo Buhler,,-40.587999,-73.125999,,,0,
905,,César Ercilla / Zenteno,,-40.585637,-73.121302,,,0,
906,,Le Mans / Eduardo Meyer E,,-40.597027,-73.104967,,,0,
907,,Francia / Luisa Schöner,,-40.58933,-73.102927,,,0,
908,,César Ercilla / Julio Buschman,,-40.576721,-73.111518,,,0,
909,,Pedro Montt / Sofanora Vidal,,-40.57035,-73.158266,,,0,
910,,Uno De Mayo / Caupolicán,,-40.568871,-73.160191,,,0,
911,,Bahía Mansa / Cantiamo Norte,,-40.55877,-73.175877,,,0,
912,,Panguimapu / Pufayo,,-40.55736,-73.176958,,,0,
913,,Nueva Imperial / Aleucapi,,-40.56023,-73.18041,,,0,
914,,Huamputue / Pasaje La Aguada,,-40.561654,-73.17984,,,0,
915,,Bahía Mansa / Quemeumo,,-40.558807,-73.175195,,,0,
916,,Madrid / San Diego,,-40.563797,-73.167811,,,0,
917,,Errázuriz / José Victorino Lastarria,,-40.57378,-73.121415,,,0,
918,,Errázuriz / José Manuel Balmaceda,,-40.573888,-73.118667,,,0,
919,,Luis Emilio Recabarren / Pedro Aguirre Cerda,,-40.574596,-73.113164,,,0,
920,,César Ercilla / Luis Emilio Recabarren,,-40.575497,-73.111445,,,0,
921,,Julio Buschman / Dieciocho De Septiembre,,-40.577089,-73.108177,,,0,
922,,Julio Buschman / José Vidal,,-40.578451,-73.104811,,,0,
923,,Bahía Mansa / Panguimapu,,-40.558852,-73.17681,,,0,
924,,Pichimpulli / Huamputue,,-40.561349,-73.178704,,,0,
925,,Nueva Imperial / Pasaje El Cardal,,-40.559525,-73.1799,,,0,
926,,Monte Verde / Nueva Imperial,,-40.556323,-73.178478,,,0,
939,"",Terminal De Buses Línea 45,"",-40.553775,-73.172762,,"",0,
940,"",Luis Alberto Guzmán / Nueva Imperial,"",-40.563075,-73.181526,,"",0,
941,"",Luis Alberto Guzmán / Pichimpulli,"",-40.562686,-73.178772,,"",0,
942,,César Ercilla / Cervantes,,-40.582381,-73.11774,,,0,
943,,César Ercilla / Pasaje Dos,,-40.580831,-73.115869,,,0,
944,"",Terminal De Buses Línea 1,,-40.559433,-73.16884,,"",0,
945,"",La Misión / Chauracahuin,,-40.559833,-73.166954,,"",0,
959,"",Julio Buschman / Pedro Aguirre Cerda,,-40.576102,-73.114047,,"",0,
960,"",Patricio Lynch / Manuel Montt,"",-40.575262,-73.117381,,"",0,
961,"",Patricio Lynch / José Manuel Balmaceda,"",-40.574865,-73.118831,,"",0,
962,"",Patricio Lynch / Andrés Bello,"",-40.574494,-73.120792,,"",0,
963,"",Patricio Lynch / Angúlo,"",-40.574355,-73.12389,,"",0,
967,"",Los Carrera / Arturo Prat,"",-40.572043,-73.13013,,"",0,
968,"",Los Carrera / Ramón Freire,"",-40.572008,-73.13096,,"",0,
969,"",Los Carrera / Lord Cochrane,"",-40.57185,-73.134135,,"",0,
970,"",Los Carrera / Manuel Antonio Matta,"",-40.571839,-73.134376,,"",0,
971,"",Los Carrera / Bernardo O`Higgins,"",-40.571692,-73.137645,,"",0,
972,"",Los Carrera / Manuel Bulnes,"",-40.571679,-73.137948,,"",0,
987,"",Portales / Eleuterio Ramírez,"",-40.5732,-73.140373,,"",0,
988,"",Francisco Bilbao / Portales,"",-40.575711,-73.13919,,"",0,
989,"",Francisco Bilbao / Manuel Bulnes,"",-40.575743,-73.138603,,"",0,
990,"",Francisco Bilbao / Bernardo O´Higgins,"",-40.575876,-73.135907,,"",0,
991,"",Francisco Bilbao / Manuel Antonio Matta,"",-40.575911,-73.135051,,"",0,
992,"",Francisco Bilbao / Ramón Freire,"",-40.576047,-73.132064,,"",0,
993,"",Cristóbal Colón / Juan Mackenna,"",-40.575517,-73.12791,,"",0,
994,"",Cristóbal Colón / Patricio Lynch,"",-40.573799,-73.127625,,"",0,
995,"",Errázuriz / Cristóbal Colón,"",-40.573325,-73.126551,,"",0,
996,"",Errázuriz / Angúlo,"",-40.573682,-73.1239,,"",0,
997,"",Errázuriz / José Victorino Lastarria,"",-40.57378,-73.121415,,"",0,
998,"",Errázuriz / José Manuel Balmaceda,"",-40.573888,-73.118667,,"",0,
999,"",Luis Emilio Recabarren / Pedro Aguirre Cerda,"",-40.574596,-73.113164,,"",0,
1000,"",César Ercilla / Luis Emilio Recabarren,"",-40.575497,-73.111445,,"",0,
1005,"",Juan Mackenna / Justo Geisse,"",-40.575209,-73.127084,,"",0,
1006,"",Juan Mackenna / Eduviges,"",-40.575373,-73.124094,,"",0,
1007,"",Juan Mackenna / Brasil,"",-40.575597,-73.119611,,"",0,
1008,"",Juan Mackenna / Buenos Aires,"",-40.576284,-73.115006,,"",0,
1021,"",Diego De Almagro / El Dorado,"",-40.590301,-73.116884,,"",0,
1022,"",Diego De Almagro / Riñihue,"",-40.589307,-73.115645,,"",0,
1023,"",Diego De Almagro / Colo Colo,"",-40.588041,-73.114083,,"",0,
1024,"",Diego De Almagro / Cervantes,"",-40.587181,-73.113028,,"",0,
1025,"",Diego De Almagro / Gómez Carreño,"",-40.585218,-73.110674,,"",0,
1026,"",Diego De Almagro / Alcalde René Soriano Bórquez,"",-40.58393,-73.109112,,"",0,
1027,"",Diego De Almagro / Amador Barrientos,"",-40.582687,-73.107621,,"",0,
1028,"",Argomedo / Aldea San Alberto Magno,"",-40.581226,-73.106335,,"",0,
1029,"",Argomedo / Juan Schuurman,"",-40.579984,-73.105256,,"",0,
1030,"",Argomedo / Julio Buschman,"",-40.579172,-73.104551,,"",0,
1044,"",Julio Buschman / José Vidal,"",-40.578451,-73.104811,,"",0,
1046,"",Santiago Rosas / Diego De Almagro,"",-40.592235,-73.120156,,"",0,
1048,"",Amador Barrientos / Efraín Vásquez,"",-40.581077,-73.109252,,"",0,
1049,"",Julio Buschman / Dieciocho De Septiembre,"",-40.577089,-73.108177,,"",0,
1050,"",Avenida Alcalde Alberto Fuschlocher / Guillermo Hollstein,"",-40.580376,-73.100834,,"",0,
1051,"",Avenida Alcalde Alberto Fuschlocher / Con Con,"",-40.582945,-73.094832,,"",0,
1052,"",Universidad De Los Lagos,"",-40.586072,-73.089476,,"",0,
1053,"",Avenida Alcalde Alberto Fuschlocher / Eleodoro Vásquez,"",-40.580161,-73.100617,,"",0,
1054,"",Julio Buschman / Dieciocho De Septiembre,"",-40.577413,-73.106752,,"",0,
1061,"",Inés De Suárez / Manuel Rodríguez,"",-40.577578,-73.138497,,"",0,
1069,"",Inés De Suárez / Sargento Hott,"",-40.580034,-73.142709,,"",0,
1070,"",Concepción / Iquique,"",-40.578073,-73.149363,,"",0,
1071,"",República / Iquique,"",-40.574242,-73.149158,,"",0,
1073,"",República / Chillán,"",-40.573989,-73.154627,,"",0,
1074,"",Chillán / República,"",-40.574267,-73.154333,,"",0,
1075,"",Chillán / Valparaíso,"",-40.576148,-73.154673,,"",0,
1076,"",Azapa / Chacarillas,"",-40.576721,-73.178078,,"",0,
1077,"",Azapa / Illapel,"",-40.576237,-73.174579,,"",0,
1078,"",Azapa / Nueva Poniente,"",-40.576027,-73.17311,,"",0,
1079,"",Nueva Poniente / Recoleta,"",-40.572071,-73.173718,,"",0,
1082,"",Doce De Octubre / Sevilla,"",-40.566405,-73.16862,,"",0,
1083,"",Doce De Octubre / Madrid,"",-40.566464,-73.167757,,"",0,
1084,"",Doce De Octubre / La Misión,"",-40.566346,-73.165954,,"",0,
1086,"",Camino U - 40 / Rosario,"",-40.567683,-73.173291,,"",0,
1087,"",Bellavista / Chorrillos,"",-40.569383,-73.169705,,"",0,
1095,"",Guillermo Schwencke / Víctor Villalón,"",-40.584659,-73.160634,,"",0,
1096,"",Chillán / Miraflores,"",-40.582616,-73.155739,,"",0,
1097,"",Chillán / Llanquihue,"",-40.580958,-73.155286,,"",0,
1098,"",Chillán / Temuco,"",-40.578794,-73.154983,,"",0,
1099,"",República / Por La Razón O La Fuerza,"",-40.57414,-73.148156,,"",0,
1100,"",República / Antofagasta,"",-40.573969,-73.150652,,"",0,
1101,"",República / Talca,"",-40.573883,-73.151848,,"",0,
1102,"",República / Chillán,"",-40.573814,-73.154669,,"",0,
1105,"",Pedro Montt / Sofanora Vidal,"",-40.57035,-73.158266,,"",0,
1106,"",Uno De Mayo / Caupolicán,"",-40.568871,-73.160191,,"",0,
1107,"",Caupolicán / Uno De Mayo,"",-40.569221,-73.160611,,"",0,
1108,"",Juan Estéban Montero / Victoria,"",-40.571865,-73.157891,,"",0,
1109,"",Victoria / República,"",-40.573203,-73.157713,,"",0,
1110,"",República / Por La Razón O La Fuerza,"",-40.574351,-73.147617,,"",0,
1111,"",Portales / Los Carrera,"",-40.572127,-73.140436,,"",0,
1143,"",Chacarillas / Chauracahuin,"",-40.561507,-73.172392,,"",0,
1144,"",Chacarillas / Las Nieves,"",-40.577465,-73.178113,,"",0,
1146,"",Del Pacífico / Bahía Escocia,"",-40.579788,-73.176277,,"",0,
1148,"",Bahía Escocia / Quilanto,"",-40.58024,-73.1757,,"",0,
1149,"",Acapulco / Venecia,"",-40.582877,-73.176596,,"",0,
1150,"",Acapulco / Pasaje Mar Del Plata,"",-40.58349,-73.177071,,"",0,
1154,"",Walterio Mayer / San Agustín,"",-40.589597,-73.175399,,"",0,
1155,"",Walterio Mayer / Ancud,"",-40.588444,-73.173786,,"",0,
1158,"",Bolivia / El Salvador,"",-40.583311,-73.170569,,"",0,
1159,"",Panamá / Bolivia,"",-40.581164,-73.169874,,"",0,
1160,"",Panamá / Manizales,"",-40.580858,-73.167501,,"",0,
1161,"",Perú / Nicaragua,"",-40.582546,-73.165575,,"",0,
1163,,Avenida Alcalde Alberto Fuschlocher / Con Con,,-40.5834606294872,-73.0931303730163,,,0,
1166,,Terminal De Buses Línea 9,,-40.590534,-73.142046,,,0,
1167,,Pullinque / Colbún,,-40.590729,-73.145135,,,0,
1168,,Santa Flora / Santa Paulina,,-40.587837,-73.14298,,,0,
1169,,Santa Florentina / Santa Eliana,,-40.587341,-73.141256,,,0,
1170,,Santa Florentina / Las Torcazas,,-40.586142,-73.140814,,,0,
1171,,Los Jilgueros / Los Tiuques,,-40.584561,-73.140276,,,0,
1172,,Las Gaviotas / Los Cernícalos,,-40.583366,-73.141586,,,0,
1173,,Francisco Bilbao / Bernardo O´Higgins,,-40.575876,-73.135907,,,0,
1174,,Francisco Bilbao / Manuel Antonio Matta,,-40.575911,-73.135051,,,0,
1175,,Francisco Bilbao / Ramón Freire,,-40.576047,-73.132064,,,0,
1176,,Cristóbal Colón / Juan Mackenna,,-40.575517,-73.12791,,,0,
1177,,Cristóbal Colón / Patricio Lynch,,-40.573799,-73.127625,,,0,
1178,,Errázuriz / Cristóbal Colón,,-40.573325,-73.126551,,,0,
1179,,Errázuriz / Angúlo,,-40.573682,-73.1239,,,0,
1180,,Errázuriz / José Victorino Lastarria,,-40.57378,-73.121415,,,0,
1181,,Errázuriz / José Manuel Balmaceda,,-40.573888,-73.118667,,,0,
1182,,Luis Emilio Recabarren / Pedro Aguirre Cerda,,-40.574596,-73.113164,,,0,
1183,,César Ercilla / Luis Emilio Recabarren,,-40.575497,-73.111445,,,0,
1184,,Alcalde René Soriano Bórquez / Diego De Almagro,,-40.58393,-73.108529,,,0,
1185,,Alcalde René Soriano Bórquez / Alsacia,,-40.587498,-73.103431,,,0,
1186,,Francia / Luisa Schöner,,-40.589599,-73.103643,,,0,
1187,,Le Mans / Eduardo Meyer E,,-40.597027,-73.104967,,,0,
1188,,Francia / Luisa Schöner,,-40.58933,-73.102927,,,0,
1189,,César Ercilla / Julio Buschman,,-40.576721,-73.111518,,,0,
1190,,Julio Buschman / Pedro Aguirre Cerda,,-40.576102,-73.114047,,,0,
1191,,Patricio Lynch / Manuel Montt,,-40.575262,-73.117381,,,0,
1192,,Patricio Lynch / José Manuel Balmaceda,,-40.574865,-73.118831,,,0,
1193,,Patricio Lynch / Andrés Bello,,-40.574494,-73.120792,,,0,
1194,,Patricio Lynch / Angúlo,,-40.574355,-73.12389,,,0,
1195,,Angúlo / Errázuriz,,-40.573297,-73.124169,,,0,
1196,,Los Carrera / Angúlo,,-40.572383,-73.124823,,,0,
1197,,Los Carrera / Cristóbal Colón,,-40.572248,-73.126898,,,0,
1198,,Los Carrera / Arturo Prat,,-40.572043,-73.13013,,,0,
1199,,Los Carrera / Ramón Freire,,-40.572008,-73.13096,,,0,
1200,,Los Carrera / Lord Cochrane,,-40.57185,-73.134135,,,0,
1201,,Los Carrera / Manuel Antonio Matta,,-40.571839,-73.134376,,,0,
1202,,Los Carrera / Bernardo O`Higgins,,-40.571692,-73.137645,,,0,
1203,,Los Carrera / Manuel Bulnes,,-40.571679,-73.137948,,,0,
1204,,Portales / Los Carrera,,-40.572127,-73.140436,,,0,
1205,,Portales / Eleuterio Ramírez,,-40.5732,-73.140373,,,0,
1206,,Inés De Suárez / Manuel Rodríguez,,-40.577578,-73.138497,,,0,
1207,,Julio Buschman / Dieciocho De Septiembre,,-40.577089,-73.108177,,,0,
1208,,Julio Buschman / José Vidal,,-40.578451,-73.104811,,,0,
1209,,Avenida Alcalde Alberto Fuschlocher / Guillermo Hollstein,,-40.580376,-73.100834,,,0,
1210,,Avenida Alcalde Alberto Fuschlocher / Con Con,,-40.582945,-73.094832,,,0,
1211,,Universidad De Los Lagos,,-40.586072,-73.089476,,,0,
1212,,Avenida Alcalde Alberto Fuschlocher / Con Con,,-40.5834606294872,-73.0931303730163,,,0,
1213,,Avenida Alcalde Alberto Fuschlocher / Eleodoro Vásquez,,-40.580161,-73.100617,,,0,
1214,,Julio Buschman / Dieciocho De Septiembre,,-40.577413,-73.106752,,,0,
1215,"",Terminal Línea 1,,-42.4584753808058,-73.7840865717583,,"",0,
1216,"",Recadero Oberreuter / Profesor Hipolito Venegas,,-42.4645256190755,-73.7830521226845,,"",0,
1217,"",Pablo Neruda / Recadero Oberreuter,,-42.4645600426953,-73.7840870208321,,"",0,
1218,"",Pablo Neruda / Cementerio,,-42.4657883584351,-73.7845317962951,,"",0,
1219,"",Cardenal José María Caro / Clotario Blest,,-42.4685395705447,-73.7789279447746,,"",0,
1220,"",Cardenal José María Caro / Ignacia Leiva Vidal,"",-42.468062,-73.776177,,"",0,
1221,"",Antonio Quintanilla / Cancha Rayada,,-42.469842666982,-73.7739481607132,,"",0,
1222,"",Bernardo O´Higgins / Ignacio Carrera Pinto,,-42.4722990431846,-73.7642557496682,,"",0,
1223,"",Bernardo O´Higgins / Gabriela Mistral,,-42.4767586522768,-73.7654498048935,,"",0,
1224,"",Francisco Coloane Caro / Pedro Barrientos,,-42.4811613657271,-73.7799479828033,,"",0,
1225,"",Francisco Coloane Caro / Ernesto Novoa,,-42.481940868619,-73.7825896011886,,"",0,
1226,"",Ernesto Novoa / Ubaldo Mancilla,,-42.4823680657319,-73.7829728809509,,"",0,
1227,"",Ubaldo Mancilla / Regidor Juan Bórquez,"",-42.482568,-73.781232,,"",0,
1228,"",Ubaldo Mancilla / Padre Angel Subiabre,"",-42.483076,-73.776995,,"",0,
1229,"",Argomedo / Juan Martínez De Rozas,,-42.4729828429872,-73.7713104957008,,"",0,
1234,"",Galvarino Riveros / Caguach,"",-42.470105,-73.78239,,"",0,
1239,"",Bernardo O´Higgins / Sargento Aldea,,-42.4782480217803,-73.765361974205,,"",0,
1240,"",Bernardo O´Higgins / Gamboa,,-42.4814489562372,-73.765262609787,,"",0,
1241,"",Ruta 5 / Chacabuco,,-42.4843560991436,-73.7635221521149,,"",0,
1242,"",Ruta 5 / Ubaldo Mancilla,,-42.4832666489849,-73.7734624699058,,"",0,
1251,"",Ruta 5 / Ubaldo Mancilla,,-42.4832515831804,-73.7732203766518,,"",0,
1252,"",Esmeralda / Blanco Encalada,,-42.4830330438633,-73.7634244785041,,"",0,
1253,"",Ignacio Serrano / Blanco Encalada,,-42.482541978084,-73.7618254699058,,"",0,
1254,"",Eleuterio Ramírez / San Martín,,-42.4792782835723,-73.763415927578,,"",0,
1258,,Terminal De Buses Línea 20,,-40.604223,-73.096079,,,0,
1259,,Francia / Luisa Schöner,,-40.589599,-73.103643,,,0,
1260,,Zenteno / Lauca,,-40.590492,-73.115737,,,0,
1261,,Zenteno / Carol Urzúa,,-40.588478,-73.118094,,,0,
1262,,Zenteno / Dieciocho De Septiembre,,-40.587407,-73.119021,,,0,
1263,,Zenteno / César Ercilla,,-40.585707,-73.120533,,,0,
1264,,César Ercilla / Cervantes,,-40.582381,-73.11774,,,0,
1265,,César Ercilla / Pasaje Dos,,-40.580831,-73.115869,,,0,
1266,,César Ercilla / Julio Buschman,,-40.576721,-73.111518,,,0,
1267,,Julio Buschman / Pedro Aguirre Cerda,,-40.576102,-73.114047,,,0,
1268,,Patricio Lynch / Manuel Montt,,-40.575262,-73.117381,,,0,
1269,,Patricio Lynch / José Manuel Balmaceda,,-40.574865,-73.118831,,,0,
1270,,Patricio Lynch / Andrés Bello,,-40.574494,-73.120792,,,0,
1271,,Patricio Lynch / Angúlo,,-40.574355,-73.12389,,,0,
1272,,Angúlo / Errázuriz,,-40.573297,-73.124169,,,0,
1273,,Los Carrera / Angúlo,,-40.572383,-73.124823,,,0,
1274,,Los Carrera / Cristóbal Colón,,-40.572248,-73.126898,,,0,
1275,,Los Carrera / Arturo Prat,,-40.572043,-73.13013,,,0,
1276,,Los Carrera / Ramón Freire,,-40.572008,-73.13096,,,0,
1277,,Los Carrera / Lord Cochrane,,-40.57185,-73.134135,,,0,
1278,,Los Carrera / Manuel Antonio Matta,,-40.571839,-73.134376,,,0,
1279,,Los Carrera / Bernardo O`Higgins,,-40.571692,-73.137645,,,0,
1280,,Los Carrera / Manuel Bulnes,,-40.571679,-73.137948,,,0,
1281,,Guillermo Francke / Julio Montt,,-40.569794,-73.146362,,,0,
1282,,Guillermo Francke / Los Tigres,,-40.568517,-73.147023,,,0,
1283,,Héroes De La Concepción / Chañaral,,-40.565648,-73.151729,,,0,
1284,,Héroes De La Concepción / Chapiquiña,,-40.562962,-73.152441,,,0,
1285,,Héroes De La Concepción / Potrerillos,,-40.562109,-73.152413,,,0,
1286,,Los Laureles / Los Cafelates,,-40.551046,-73.160754,,,0,
1287,,Los Boldos / Los Piñones,,-40.552115,-73.158787,,,0,
1288,,Los Boldos / Los Damascos,,-40.555413,-73.156746,,,0,
1289,,Los Pellines / Héroes De La Concepción,,-40.560528,-73.152763,,,0,
1290,,Héroes De La Concepción / Paipote,,-40.564396,-73.152395,,,0,
1291,,Héroes De La Concepción / Los Algarrobos,,-40.565467,-73.152043,,,0,
1292,,Héroes De La Concepción / Chucumata,,-40.568047,-73.149418,,,0,
1293,,Guillermo Francke / Machalí,,-40.568662,-73.147152,,,0,
1294,,Guillermo Francke / Julio Montt,,-40.570371,-73.146113,,,0,
1295,,Portales / Eleuterio Ramírez,,-40.5732,-73.140373,,,0,
1296,,Francisco Bilbao / Portales,,-40.575711,-73.13919,,,0,
1297,,Francisco Bilbao / Manuel Bulnes,,-40.575743,-73.138603,,,0,
1298,,Francisco Bilbao / Bernardo O´Higgins,,-40.575876,-73.135907,,,0,
1299,,Francisco Bilbao / Manuel Antonio Matta,,-40.575911,-73.135051,,,0,
1300,,Francisco Bilbao / Ramón Freire,,-40.576047,-73.132064,,,0,
1301,,Cristóbal Colón / Juan Mackenna,,-40.575517,-73.12791,,,0,
1303,,Cristóbal Colón / Patricio Lynch,,-40.573799,-73.127625,,,0,
1304,,Errázuriz / Cristóbal Colón,,-40.573325,-73.126551,,,0,
1305,,Errázuriz / Angúlo,,-40.573682,-73.1239,,,0,
1306,,Errázuriz / José Victorino Lastarria,,-40.57378,-73.121415,,,0,
1307,,Errázuriz / José Manuel Balmaceda,,-40.573888,-73.118667,,,0,
1308,,Luis Emilio Recabarren / Pedro Aguirre Cerda,,-40.574596,-73.113164,,,0,
1309,,César Ercilla / Luis Emilio Recabarren,,-40.575497,-73.111445,,,0,
1310,,Alcalde René Soriano Bórquez / Diego De Almagro,,-40.58393,-73.108529,,,0,
1311,,Alcalde René Soriano Bórquez / Alsacia,,-40.587498,-73.103431,,,0,
1312,,Le Mans / Eduardo Meyer E,,-40.597027,-73.104967,,,0,
1313,,Francia / Luisa Schöner,,-40.58933,-73.102927,,,0,
1315,,Terminal De Buses Línea 4,,-40.586306,-73.178985,,,0,
1316,,Real / Chacarillas,,-40.592951,-73.170624,,,0,
1317,,Real / Beethoven,,-40.591078,-73.169043,,,0,
1318,,Real / Mozart,,-40.589558,-73.167979,,,0,
1319,,Real / El Salvador,,-40.585056,-73.164767,,,0,
1320,,Real / Guillermo Schwencke,,-40.583652,-73.163714,,,0,
1321,,Real / Lupecio Martínez,,-40.582437,-73.162273,,,0,
1322,,Real / Erwin Piwonka,,-40.580742,-73.161094,,,0,
1323,,República / Chillán,,-40.573989,-73.154627,,,0,
1324,,República / Iquique,,-40.574242,-73.149158,,,0,
1325,,República / Por La Razón O La Fuerza,,-40.574351,-73.147617,,,0,
1326,,Francisco Bilbao / Portales,,-40.575711,-73.13919,,,0,
1327,,Francisco Bilbao / Manuel Bulnes,,-40.575743,-73.138603,,,0,
1328,,Francisco Bilbao / Bernardo O´Higgins,,-40.575876,-73.135907,,,0,
1329,,Francisco Bilbao / Manuel Antonio Matta,,-40.575911,-73.135051,,,0,
1330,,Francisco Bilbao / Ramón Freire,,-40.576047,-73.132064,,,0,
1331,,Cristóbal Colón / Juan Mackenna,,-40.575517,-73.12791,,,0,
1332,,Cristóbal Colón / Patricio Lynch,,-40.573799,-73.127625,,,0,
1333,,Errázuriz / Cristóbal Colón,,-40.573325,-73.126551,,,0,
1334,,Errázuriz / Angúlo,,-40.573682,-73.1239,,,0,
1335,,Errázuriz / José Victorino Lastarria,,-40.57378,-73.121415,,,0,
1336,,Errázuriz / José Manuel Balmaceda,,-40.573888,-73.118667,,,0,
1337,,Luis Emilio Recabarren / Pedro Aguirre Cerda,,-40.574596,-73.113164,,,0,
1338,,César Ercilla / Luis Emilio Recabarren,,-40.575497,-73.111445,,,0,
1339,,Julio Buschman / Dieciocho De Septiembre,,-40.577089,-73.108177,,,0,
1340,,Julio Buschman / José Vidal,,-40.578451,-73.104811,,,0,
1341,,Avenida Alcalde Alberto Fuschlocher / Guillermo Hollstein,,-40.580376,-73.100834,,,0,
1342,,Avenida Alcalde Alberto Fuschlocher / Con Con,,-40.582945,-73.094832,,,0,
1343,,Universidad De Los Lagos,,-40.586072,-73.089476,,,0,
1344,,Avenida Alcalde Alberto Fuschlocher / Con Con,,-40.5834606294872,-73.0931303730163,,,0,
1345,,Avenida Alcalde Alberto Fuschlocher / Eleodoro Vásquez,,-40.580161,-73.100617,,,0,
1346,,Julio Buschman / Dieciocho De Septiembre,,-40.577413,-73.106752,,,0,
1347,,César Ercilla / Pasaje Dos,,-40.580711,-73.11614,,,0,
1348,,César Ercilla / Barros Araña,,-40.582753,-73.118544,,,0,
1349,,César Ercilla / Zenteno,,-40.585451,-73.121437,,,0,
1350,,César Ercilla / Margaritas,,-40.586391,-73.122981,,,0,
1351,,César Ercilla / Doctor Guillermo Buhler,,-40.58783,-73.12616,,,0,
1352,,Doctor Guillermo Buhler / Hospital Del Trabajador,,-40.586911,-73.127329,,,0,
1353,,Doctor Guillermo Buhler / Santiago Rosas,,-40.584114,-73.128441,,,0,
1354,,Ramón Freire / Barros Araña,,-40.581289,-73.129904,,,0,
1355,,Ramón Freire / Conrado Amthauer,,-40.578938,-73.130915,,,0,
1356,,Ramón Freire / Manuel Rodríguez,,-40.577701,-73.130956,,,0,
1357,,Los Carrera / Arturo Prat,,-40.572043,-73.13013,,,0,
1358,,Los Carrera / Ramón Freire,,-40.572008,-73.13096,,,0,
1359,,Los Carrera / Lord Cochrane,,-40.57185,-73.134135,,,0,
1360,,Los Carrera / Manuel Antonio Matta,,-40.571839,-73.134376,,,0,
1361,,Los Carrera / Bernardo O`Higgins,,-40.571692,-73.137645,,,0,
1362,,Los Carrera / Manuel Bulnes,,-40.571679,-73.137948,,,0,
1363,,Portales / Los Carrera,,-40.572127,-73.140436,,,0,
1364,,Portales / Eleuterio Ramírez,,-40.5732,-73.140373,,,0,
1365,,República / Por La Razón O La Fuerza,,-40.57414,-73.148156,,,0,
1366,,República / Antofagasta,,-40.573969,-73.150652,,,0,
1367,,República / Talca,,-40.573883,-73.151848,,,0,
1368,,Chillán / República,,-40.574267,-73.154333,,,0,
1369,,Chillán / Valparaíso,,-40.576148,-73.154673,,,0,
1370,,Chacarillas / Ancud,,-40.583578,-73.179651,,,0,
1371,,Chacarillas / Venecia,,-40.582029,-73.178577,,,0,
1372,,Chacarillas / Pasaje Puerto Huillín,,-40.579353,-73.177557,,,0,
1373,,Azapa / Chacarillas,,-40.576721,-73.178078,,,0,
1374,,Azapa / Illapel,,-40.576237,-73.174579,,,0,
1375,,Azapa / Nueva Poniente,,-40.576027,-73.17311,,,0,
1376,,Nueva Poniente / Recoleta,,-40.572071,-73.173718,,,0,
1377,,Arturo Prat / Barros Araña,,-40.58157,-73.128798,,,0,
1378,,Doctor Guillermo Buhler / Los Conquistadores,,-40.584228,-73.128701,,,0,
1379,,Doctor Guillermo Buhler / Hospital Del Trabajador,,-40.586704,-73.127961,,,0,
1380,,Hospital Osorno,,-40.587341,-73.127094,,,0,
1381,,César Ercilla / Doctor Guillermo Buhler,,-40.587999,-73.125999,,,0,
1382,,César Ercilla / Zenteno,,-40.585637,-73.121302,,,0,
1383,,Diego De Almagro / Riñihue,,-40.589307,-73.115645,,,0,
1384,,Diego De Almagro / Colo Colo,,-40.588041,-73.114083,,,0,
1385,,Diego De Almagro / Cervantes,,-40.587181,-73.113028,,,0,
1386,,Diego De Almagro / Gómez Carreño,,-40.585218,-73.110674,,,0,
1387,,Diego De Almagro / Alcalde René Soriano Bórquez,,-40.58393,-73.109112,,,0,
1388,,Diego De Almagro / Amador Barrientos,,-40.582687,-73.107621,,,0,
1389,,Argomedo / Aldea San Alberto Magno,,-40.581226,-73.106335,,,0,
1390,,Argomedo / Juan Schuurman,,-40.579984,-73.105256,,,0,
1391,,Argomedo / Julio Buschman,,-40.579172,-73.104551,,,0,
1392,,Julio Buschman / Pedro Aguirre Cerda,,-40.576102,-73.114047,,,0,
1393,,Patricio Lynch / Manuel Montt,,-40.575262,-73.117381,,,0,
1394,,Patricio Lynch / José Manuel Balmaceda,,-40.574865,-73.118831,,,0,
1395,,Patricio Lynch / Andrés Bello,,-40.574494,-73.120792,,,0,
1396,,Patricio Lynch / Angúlo,,-40.574355,-73.12389,,,0,
1397,,República / Chillán,,-40.573814,-73.154669,,,0,
1398,,Bellavista / Chorrillos,,-40.569432,-73.168118,,,0,
1399,,Chacarillas / Las Nieves,,-40.577465,-73.178113,,,0,
1400,,Del Pacífico / Bahía Escocia,,-40.579788,-73.176277,,,0,
1401,,Bahía Escocia / Quilanto,,-40.58024,-73.1757,,,0,
1402,"",República / Victoria,"",-40.573908,-73.15823,,"",0,
1403,,Terminal Alerce Historico,Pedro De Valdivia Nº1641,-41.396946,-72.910364,,,0,
1404,,Arturo Pacheco Altamirano / Ana Gonzalez Olea,,-41.3821675122884,-72.8989442417335,,,0,
1405,,Arturo Pacheco Altamirano / Avenida Transversal 4,,-41.3833444139686,-72.8983131951065,,,0,
1406,,Arturo Pacheco Altamirano / Pasaje Manuel Maldonado,,-41.3839366638217,-72.8979860552254,,,0,
1407,,Arturo Pacheco Altamirano / Pasaje Gastón Gómez,,-41.3852697145719,-72.8972643263893,,,0,
1408,,Avenida Transversal 3 / Golfo De Penas,,-41.3880807288952,-72.9009634662705,,,0,
1409,,Avenida Norte Sur 2 / Avenida Transversal 3,,-41.3893537051964,-72.9082236908073,,,0,
1410,,Avenida Norte Sur 2 / O´Higgins,,-41.39332562303,-72.9064887374344,,,0,
1411,,Avenida Norte Sur 2 / Avenida Los Alerces,,-41.3966327467765,-72.9047005975532,,,0,
1412,,Centro De Salud Alerce,Centro De Salud Alerce Sapu,-41.3976406271708,-72.9041624196434,,,0,
1413,,Transversal 1 / Avenida Norte Sur 2,"Jardin Manitos Traviesas, Poblacion Manuel Bustos",-41.3997444139081,-72.9030182417335,,,0,
1414,,Transversal 1 / Pasaje Proa,,-41.4005229283702,-72.9054261018524,,,0,
1415,,Avenida Norte Sur / Quintupeu,,-41.4029337627355,-72.9070145975533,,,0,
1416,,Avenida Norte Sur / Quehui,,-41.404999693224,-72.9060816908074,,,0,
1417,,Bertoldo Schmidt Hausdorf / Franz Renz,,-41.4096826387284,-72.9058325128975,,,0,
1418,,Calle Mirador / Bertoldo Schmidt Hausdorf,,-41.4101255809582,-72.9090038601189,,,0,
1419,,Avenida Transversal 2 / Cerro Guife,Senderos De Alerce,-41.407806765753,-72.9105417374345,,,0,
1420,,"Camino Alerce, Sector La Vara",,-41.425986,-72.911777,,,0,
1421,,Camino Alerce / Avenida Austral,,-41.4488479164684,-72.9135287374344,,,0,
1422,,Ejército / Avenida Presidente Ibañez,,-41.463837,-72.927265,,,0,
1423,,Ejército / Población Lago Chapo,,-41.466164,-72.927865,,,0,
1424,,Ejército / Los Leones,Escuela Particular N. 192 San Jose Particular Subvencionado,-41.4665729208632,-72.9318532417335,,,0,
1425,,Ejército / Seminario,,-41.4690868822316,-72.9350245681229,,,0,
1426,,Benavente / Illapel,,-41.4708016583946,-72.9363914662705,,,0,
1427,,Quillota / Benavente,,-41.470912,-72.938609,,,0,
1429,,Avenida Diego Portales / San Martín,,-41.472682,-72.940369,,,0,
1430,,Avenida Diego Portales / Ancud,Avenida Diego Portales,-41.4758602017064,-72.949144708004,,,0,
1435,,Urmeneta / Anibal Pinto,,-41.4726897477506,-72.9473660932541,,,0,
1436,,Urmeneta / Cauquenes,,-41.4723076600287,-72.9447454576722,,,0,
1437,,Cauquenes / Antonio Varas,Frente Direccion General Del Trabajo,-41.4730272132444,-72.9441352883606,,,0,
1441,,Avenida Parque Industrial / Pasaje Los Melis,,-41.4606723022851,-72.9524513029022,,,0,
1442,,Avenida Parque Industrial / José Miguel Carrera,,-41.461265,-72.94821,,,0,
1443,,Homecenter Sodimac,,-41.461721,-72.945643,,,0,
1444,,Avenida Presidente Ibañez / Luis Silva,,-41.462566,-72.936219,,,0,
1445,,Avenida Presidente Ibañez / Santiago Ernst,"",-41.462872,-72.933152,,,0,
1446,,Avenida Presidente Ibañez / Quellón,,-41.463058,-72.931393,,,0,
1447,,Avenida Presidente Ibañez / Simón Cordovez,,-41.463228,-72.929611,,,0,
1448,,Avenida Presidente Ibañez / Coronel Holley,,-41.463405,-72.926099,,,0,
1449,,Camino Alerce / Bombero Artemio Mansilla,,-41.4612696078351,-72.9214359153441,,,0,
1450,,Camino Alerce / Cuarta Terraza,,-41.4589227670388,-72.9188309153443,,,0,
1451,,"Camino Alerce, Sector La Vara",,-41.4263137438002,-72.9114935509261,,,0,
1452,,Camino Alerce,,-41.4129041912934,-72.9144527460327,,,0,
1453,,Supermercado Acuenta,,-41.4066996945926,-72.9148447840614,,,0,
1454,,Avenida Transversal 2 / Cerro Guife,,-41.4079466370621,-72.9103945509262,,,0,
1455,,Centro De Salud Alerce Sapu,,-41.3976375550137,-72.9039550085984,,,0,
1456,,Avenida Norte Sur 2 / Avenida Transversal 3,Cerca Liceo Industrial Alerce,-41.3894147052417,-72.9080838306885,,,0,
1457,,Avenida Transversal 2 / Cerro Juan Luis,,-41.407035730069,-72.9124641018524,,,0,
1458,,Camino Alerce / Obispo Juan Gonzalez,,-41.452991,-72.915542,,,0,
1459,,Arturo Pacheco Altamirano / Avenida Transversal 3,,-41.386678,-72.896524,,,0,
1460,,Avenida Transversal 3 / Caleta Puelche,,-41.3870965923489,-72.8977715509262,,,0,
1461,,Avenida Transversal 3 / Avenida 2 Oriente,,-41.3872955061325,-72.8984065975533,,,0,
1462,,Circunvalacion Norte Sur / Vía Norte,,-41.4067815654882,-72.9051339619713,,,0,
1463,,Supermercado Acuenta,Supermercado A Cuenta_ Senderos De Alerce,-41.4065607884822,-72.9147913055572,,,0,
1464,,Camino Alerce,,-41.4233006967273,-72.9133871018524,,,0,
1465,,Avenida Presidente Ibañez / Chacabuco,,-41.463079,-72.929589,,,0,
1466,,Avenida Presidente Ibañez / Quellón,,-41.462926,-72.930956,,,0,
1467,,Avenida Presidente Ibañez / Chonchi,,-41.462485,-72.935726,,,0,
1468,,Supermercado Lider,,-41.460718,-72.950378,,,0,
1469,,Avenida Parque Industrial / Panamericana Norte Servicio,,-41.4602796873203,-72.9536795558892,,,0,
1470,,Avenida Presidente Salvador Allende / Avenida Presidente Ibañez,,-41.464539,-72.954272,,,0,
1471,,Avenida Diego Portales / Chillán,Avenida Diego Portales,-41.4734405548121,-72.9442916441802,,,0,
1473,,Avenida Diego Portales / Talca,,-41.473531,-72.943305,,,0,
1474,,Avenida Diego Portales / Guillermo Gallardo,,-41.472963,-72.940489,,,0,
1475,,Mall Paseo Costanera,Avenida Juan Soler Manfredini / Avenida España,-41.473015748013,-72.937563309193,,,0,
1476,,Copiapó / Avenida Juan Soler Manfredini,,-41.47355,-72.935072,,,0,
1477,,Copiapó / Egaña,,-41.472293,-72.934666,,,0,
1478,,Achs,Asociacion Chilena De Seguridad,-41.4689475876686,-72.9339155975532,,,0,
1479,,Jumbo / Easy,Hotelera Diego De Almagro,-41.4679495568283,-72.9323674576722,,,0,
1480,,Ejército / Los Leones,,-41.466724871466,-72.9316689705696,,,0,
1481,,Ejército / Avenida Presidente Ibañez,,-41.463812,-72.927012,,,0,
1482,,Avenida Norte Sur 2 / Avenida Los Alerces,Feria Alerce,-41.396726856133,-72.904470682209,,,0,
1483,,Terminal Municipal De Buses Puerto Montt,Diego Portales / Eusebio Lilo,-41.477348,-72.950419,70,,0,
1486,,Avenida Presidente Salvador Allende / Avenida Parque Industrial,,-41.461181,-72.954643,,,0,
1487,,Panamericana Sur / Pasaje Tres,,-41.458334,-72.95436,,,0,
1488,,Panamericana Norte / Canal Beagle,"",-41.455911,-72.954519,,,0,
1489,,Ruta 5 Sur / Empresas De Transporte J. Bustamante,,-41.379885,-72.96865,,,0,
1490,,San Francisco / Colón,"",-41.32419,-72.985426,,,0,
1491,,Del Salvador / Santa Rosa,,-41.318095,-72.984071,71,,0,
1492,,Terminal De Puerto Chico,,-41.329411,-72.972433,,,0,
1493,,San Bernardo / Walker Martinez,,-41.316426,-72.98575,,,0,
1494,,Ruta 5 Sur / Empresas De Transporte J. Bustamante,,-41.37996,-72.969467,,,0,
1495,,Panamericana Norte / Pasaje Tres,,-41.458122,-72.954739,,,0,
1496,,Ruta 5 Sur / Regimiento Sangra,,-41.398725,-72.95984,,,0,
1497,,Ruta 5 Sur / Regimiento Sangra,,-41.398846,-72.960318,,,0,
1498,,Terminal Municipal De Buses Puerto Montt,Diego Portales / Eusebio Lilo,-41.477348,-72.950419,53,,0,
1501,,Avenida Presidente Salvador Allende / Avenida Parque Industrial,,-41.461181,-72.954643,,,0,
1502,,Panamericana Sur / Pasaje Tres,,-41.458334,-72.95436,,,0,
1503,,Panamericana Norte / Canal Beagle,,-41.455911,-72.954519,,,0,
1504,,Ruta 5 Sur / Empresas De Transporte J. Bustamante,,-41.379885,-72.96865,,,0,
1505,,Ruta 5 Sur / Empresas De Transporte J. Bustamante,,-41.37996,-72.969467,,,0,
1506,,San Francisco / Colón,,-41.32419,-72.985426,,,0,
1507,,Del Salvador / Santa Rosa,,-41.318095,-72.984071,55,,0,
1508,,San Bernardo / Walker Martinez,,-41.316426,-72.98575,,,0,
1509,,Gramado / San Bernardo,,-41.317021,-72.986248,,,0,
1510,,Gramado / Lago Llanquihue,,-41.317663,-72.995455,,,0,
1513,,Ruta 5 Sur / Pellines,,-41.192312,-73.069492,,,0,
1514,,Ruta 5 Sur / Pellines,,-41.191585,-73.069505,,,0,
1515,,Ruta V - 55 - U,,-41.117613,-73.055823,,,0,
1516,,Terminal Frutillar,,-41.124758,-73.060268,58,,0,
1517,,Terminal Thaebus,,-41.137447,-73.027741,58,,0,
1518,,Saltos Del Petrohue,,-41.172694,-72.450457,61,,0,
1519,,Lago De Todos Los Santos,,-41.138403,-72.401297,62,,0,
1520,"",Ensenada,"",-41.212142,-72.543447,60,"",0,
1521,"",Ensenada,"",-41.212218,-72.543344,60,"",0,
1522,,Vicente Pérez Rosales,Fabrica Cecinas Llanquihue,-41.2685,-73.001348,,,0,
1523,,Vicente Pérez Rosales / Avenida Presidente Jorge Alessandri,"",-41.261851,-73.001493,,,0,
1524,,Vicente Pérez Rosales / Regidor Gerado Werner,"",-41.2568,-73.005461,,,0,
1525,,Vicente Pérez Rosales / Llanquihue,,-41.258159,-73.005493,56,,0,
1526,,Vicente Pérez Rosales / Avenida Presidente Jorge Alessandri,"",-41.261593,-73.001842,,,0,
1527,,Vicente Pérez Rosales,Fabrica Cecinas Llanquihue,-41.268822,-73.001539,,,0,
1528,,Terminal De Buses Osorno,,-40.572978,-73.125653,72,,0,
1529,,Terminal Cruz Del Sur,Pdte. Salvador Allende,-41.462967,-72.954079,,,0,
1543,,Avenida Transversal Uno / Quillagua,Kimul,-41.4025480118758,-72.9112868098564,,,0,
1544,,Arturo Pacheco Altamirano / Avenida Transversal 3,,-41.386678,-72.896524,,,0,
1545,,O´Higgins / Pasaje Lago Ranco,Riachuelo,-41.3911296331502,-72.9007470552253,,,0,
1546,,Avenida Diego Portales / Chillán,Chillan,-41.473811,-72.944365,,,0,
1547,,Cuyen / Huayun,Cuyen,-41.4545777639415,-72.9418565595245,,,0,
1548,,Arturo Pacheco Altamirano / Carlos Isamitt A,Mori,-41.3815408121164,-72.8993015595245,,,0,
1549,,Avenida Norte Sur 2 / Avenida Los Alerces,,-41.3966327467765,-72.9047005975532,,,0,
1550,,Supermercado Lider,,-41.460718,-72.950378,,,0,
1551,,Avenida Parque Industrial / Pasaje Los Melis,,-41.4606723022851,-72.9524513029022,,,0,
1552,,Gabriela Mistral / Los Mañios,G. Mistral,-41.3838515890347,-72.9206550085983,,,0,
1553,,Avenida Diego Portales / Talca,,-41.473531,-72.943305,,,0,
1554,,Avenida Diego Portales / Guillermo Gallardo,Mall Puerto Montt,-41.472963,-72.940489,,,0,
1555,,Avenida Angelmó / Miraflores,Avenida Angelmó,-41.4806937920152,-72.9549306908074,,,0,
1557,,Arturo Pacheco Altamirano / Avenida Transversal 4,,-41.3833444139686,-72.8983131951065,,,0,
1558,,Arturo Pacheco Altamirano / Pasaje Manuel Maldonado,,-41.3839366638217,-72.8979860552254,,,0,
1559,,Avenida Transversal 3 / Avenida 2 Oriente,,-41.3872955061325,-72.8984065975533,,,0,
1560,,Avenida Transversal 3 / Golfo De Penas,,-41.3880807288952,-72.9009634662705,,,0,
1561,,O´Higgins / Pasaje Hernando De Magallanes,,-41.3916764627176,-72.9025047840614,,,0,
1562,,O´Higgins / 1 Oriente,,-41.3922436829568,-72.9036027840614,,,0,
1563,,1 Oriente / Los Alerces,,-41.3951737216226,-72.9019964662705,,,0,
1564,,Centro De Salud Alerce,Centro De Salud Alerce Sapu,-41.3976406271708,-72.9041624196434,,,0,
1565,,Transversal 1 / Avenida Norte Sur 2,"Jardin Manitos Traviesas, Poblacion Manuel Bustos",-41.3997444139081,-72.9030182417335,,,0,
1566,,Transversal 1 / Pasaje Proa,,-41.4005229283702,-72.9054261018524,,,0,
1567,,Avenida Transversal 1 / Avenida Norte Sur,,-41.4012708331915,-72.9081012797623,,,0,
1568,,Avenida Transversal 1 / Claudio Arrau,,-41.4023447386092,-72.9117335128975,,,0,
1569,,Avenida Transversal 1 / Las Tortolas,,-41.4031437747217,-72.9145020638237,,,0,
1570,,Avenida Transversal 1 / Gabriela Mistral,,-41.4037539881616,-72.9164529411393,,,0,
1571,,Gabriela Mistral / Avenida Transversal 2,,-41.4063394233429,-72.9160576441803,,,0,
1572,,Camino Alerce,,-41.4233006967273,-72.9133871018524,,,0,
1573,,"Camino Alerce, Sector La Vara",,-41.425986,-72.911777,,,0,
1574,,Avenida Austral / Amanecer De Alicante,,-41.4467807058633,-72.9279580552254,,,0,
1575,,Sol De Granada / Fuente De Sevilla,Linea 1ac Cambia Ida A Vuelta,-41.4458108430639,-72.9344943422585,,,0,
1576,,Sargento Silva / Séptimo De Línea,,-41.4603347478769,-72.9394098306885,,,0,
1577,,Urmeneta / Anibal Pinto,,-41.4726897477506,-72.9473660932541,,,0,
1578,,Urmeneta / Cauquenes,,-41.4723076600287,-72.9447454576722,,,0,
1579,,Cauquenes / Antonio Varas,Frente Direccion General Del Trabajo,-41.4730272132444,-72.9441352883606,,,0,
1580,,Avenida Diego Portales / Chillán,Avenida Diego Portales,-41.4734405548121,-72.9442916441802,,,0,
1581,,Avenida Diego Portales / Ancud,Avenida Diego Portales,-41.4758602017064,-72.949144708004,,,0,
1582,,Avenida Diego Portales / Videla,Avenida Diego Portales,-41.4792718670253,-72.9527391104508,,,0,
1583,,Avenida Angelmó / Avenida Pacheco Altamirano,Avenida Angelmó,-41.4847410932935,-72.9632175595245,,,0,
1584,,Complejo Deportivo Chinquihue,,-41.4872201387894,-72.9836628637543,,,0,
1585,,Avenida Pacheco Altamirano Km 4. 3,Avenida Pacheco Altamirano,-41.4869045647573,-72.9738788134918,,,0,
1586,,Avenida Pacheco Altamirano / Muñoz Gamero,Avenida Pacheco Altamirano,-41.4861088607077,-72.9665870638237,,,0,
1587,,Caleta Angelmó,Avenida Angelmó / Avenida Pacheco Altamirano,-41.4845790746745,-72.9630143816147,,,0,
1588,,Empresa Porturia Puerto Montt,Avenida Angelmó / Independencia,-41.481398641603,-72.9563824196435,,,0,
1589,,Terminal Estadio Chinquihue,,-41.489699,-72.98842,,,0,
1590,,Chorrillos / Constitución,,-41.477999,-72.955121,,,0,
1594,,Terminal Cruz Del Sur,Pdte. Salvador Allende,-41.462967,-72.954079,,,0,
1595,,Avenida Parque Industrial / José Miguel Carrera,,-41.461265,-72.94821,,,0,
1596,,Homecenter Sodimac,,-41.461721,-72.945643,,,0,
1597,,Edificio Consistorial Puerto Montt,,-41.462495,-72.937241,,,0,
1598,,Avenida Presidente Ibañez / Santiago Ernst,,-41.462872,-72.933152,,,0,
1599,,Avenida Presidente Ibañez / Simón Cordovez,,-41.463228,-72.929611,,,0,
1600,,Avenida Presidente Ibañez / Coronel Holley,,-41.463405,-72.926099,,,0,
1601,,Camino Alerce / Bombero Artemio Mansilla,,-41.4612696078351,-72.9214359153441,,,0,
1602,,Camino Alerce / Cuarta Terraza,,-41.4589227670388,-72.9188309153443,,,0,
1603,,Camino Alerce / Obispo Juan Gonzalez,Acceso Poblacion Alto La Paloma,-41.452991,-72.915542,,,0,
1604,,Gabriela Mistral / Avenida Transversal 1,Portal De Alerce,-41.4044692245211,-72.9164632331353,,,0,
1605,,Centro De Salud Alerce Sapu,,-41.3976375550137,-72.9039550085984,,,0,
1606,,Avenida Diego Portales / Videla,Avenida Diego Portales,-41.4793376201862,-72.9524426061515,,,0,
1607,,Avenida Diego Portales / Eusebio Lillo,Avenida Diego Portales,-41.4775743697523,-72.950951635582,,,0,
1608,,Avenida Diego Portales / Valdivia,,-41.475344,-72.94794,,,0,
1609,,Mall Paseo Costanera,Avenida Juan Soler Manfredini / Avenida España,-41.473015748013,-72.937563309193,,,0,
1610,,Copiapó / Avenida Juan Soler Manfredini,,-41.47355,-72.935072,,,0,
1611,,Achs,Asociacion Chilena De Seguridad,-41.4689475876686,-72.9339155975532,,,0,
1612,,Jumbo / Easy,Hotelera Diego De Almagro,-41.4679495568283,-72.9323674576722,,,0,
1613,,Ejército / Los Leones,,-41.466724871466,-72.9316689705696,,,0,
1614,,Ejército / Avenida Presidente Ibañez,,-41.463812,-72.927012,,,0,
1615,,Quellón / Castro,,-41.4610004565772,-72.9309811484794,,,0,
1616,,Avenida Austral / Volcán Puntiagudo,,-41.4475097798673,-72.9238496355819,,,0,
1617,,Mataveri / Volcán Tulapalca,,-41.4541746609054,-72.9279217374344,,,0,
1618,,Mataveri / Calle C,,-41.4560276832349,-72.9280751951064,,,0,
1619,,Avenida Monseñor Ramón Munitas / Caren,,-41.4561486629243,-72.930900025795,,,0,
1620,,Avenida Monseñor Ramón Munitas / Curepto,,-41.4557929386423,-72.9322976061516,,,0,
1621,,Avenida Monseñor Ramón Munitas / Sargento Silva,,-41.454699,-72.93499,,,0,
1622,,Sargento Silva / Antihual,,-41.457840918698,-72.9374188859139,,,0,
1623,,Castro / Detico,,-41.4605357077215,-72.938513271164,,,0,
1624,,Castro / Huildad,,-41.4606316574351,-72.9376832503319,,,0,
1625,,Castro / Chonchi,,-41.4608587885551,-72.935540364418,,,0,
1626,,Castro / Achao,,-41.461073,-72.933331,,,0,
1627,,Avenida Presidente Ibañez / Ejército,,-41.463695,-72.927667,,,0,
1628,,Ejército / Los Leones,Escuela Particular N. 192 San Jose Particular Subvencionado,-41.4665729208632,-72.9318532417335,,,0,
1629,,Ejército / Seminario,,-41.4690868822316,-72.9350245681229,,,0,
1630,,Benavente / Illapel,,-41.4708016583946,-72.9363914662705,,,0,
1632,,Quillota / Benavente,,-41.470912,-72.938609,,,0,
1633,,Avenida Diego Portales / San Martín,,-41.472682,-72.940369,,,0,
1634,,Avenida Diego Portales / Pedro Montt,,-41.47294,-72.941797,,,0,
1635,,Avenida Pacheco Altamirano / San Ignacio,Avenida Pacheco Altamirano,-41.4861961183091,-72.966916338623,,,0,
1636,,Avenida Pacheco Altamiradno Km 4. 3,,-41.4868015182968,-72.9737805337295,,,0,
1637,,"Camino Alerce, Sector La Vara",,-41.4263137438002,-72.9114935509261,,,0,
1638,,Avenida Transversal Uno / Uno,,-41.403467,-72.9144000552253,,,0,
1639,,Arturo Pacheco Altamirano / Pasaje Gastón Gómez,,-41.3852697145719,-72.8972643263893,,,0,
1640,,Pasaje Puyehue / Riachuelo,,-41.3900624605194,-72.8993162417336,,,0,
1641,,Avenida Presidente Salvador Allende / Avenida Presidente Ibañez,,-41.464539,-72.954272,,,0,
1642,,Avenida Parque Industrial / Panamericana Norte Servicio,,-41.4602796873203,-72.9536795558892,,,0,
1643,,Gabriela Mistral / Avenida Transversal 2,,-41.4062797530484,-72.9158384196435,,,0,
1644,,Gabriela Mistral / Los Carrera,,-41.3949005469442,-72.9195263816146,,,0,
1645,,Los Mañios / Las Auracarias,,-41.3837907757948,-72.9167507202377,,,0,
1646,,Los Raulies / Los Coigues,,-41.3822203873296,-72.9167012883606,,,0,
1647,,Salvador Zurita / Los Litres,,-41.3800818617207,-72.9170964110451,,,0,
1648,,Salvador Zurita / Las Taguas,,-41.3801486983592,-72.9190634196434,,,0,
1649,,Salvador Zurita / Los Espinos,,-41.3802146230157,-72.9207019619713,,,0,
1650,,Salvador Zurita / Los Chauras,,-41.3804487362572,-72.9218773263893,,,0,
1651,,Gabriela Mistral / Los Castaños,,-41.3817336995363,-72.9220067840614,,,0,
1652,,Gabriela Mistral / Vicente Pérez Rosales,,-41.3854218263231,-72.9200475975533,,,0,
1653,,Gabriela Mistral / Las Chilas,,-41.3874996174398,-72.9197930552253,,,0,
1654,,Gabriela Mistral / Los Tricahues,,-41.3887444710248,-72.9199196908074,,,0,
1655,,Gabriela Mistral / O´Higgins,,-41.395976,-72.919323,,,0,
1656,,Gabriela Mistral / Transversal Uno,,-41.4035405144048,-72.9169841951065,,,0,
1657,,Camino Alerce / Avenida Austral,,-41.4488479164684,-72.9135287374344,,,0,
1659,,Avenida Presidente Ibañez / Chonchi,,-41.462485,-72.935726,,,0,
1660,,Claudio Arrau / Los Algarrobos,Claudio Arrao / Los Algarrobos,-41.3795007482291,-72.915611,,,0,
1661,,Avenida Monseñor Ramón Munita / Caren,,-41.4564150612442,-72.9309635128974,,,0,
1662,,Ejército / Población Lago Chapo,,-41.466164,-72.927865,,,0,
1663,,Arturo Pacheco Altamirano / Ana Gonzalez Olea,,-41.3821675122884,-72.8989442417335,,,0,
1664,,Avenida Transversal 3 / Caleta Puelche,,-41.3870965923489,-72.8977715509262,,,0,
1665,,Ejército / Avenida Presidente Ibañez,,-41.463837,-72.927265,,,0,
1667,,Pueblito Artesanal Melipulli,,-41.4781233422856,-72.951496411045,,,0,
1668,,Avenida Diego Portales / Lota,,-41.4768665309875,-72.9499515975533,,,0,
1669,,Avenida Diego Portales / Talcahuano,,-41.474626,-72.947026,,,0,
1670,,Ejército / Los Eucaliptus,,-41.465351,-72.926714,,,0,
1671,,Terminal 1e,,-41.381456724385,-72.9135892417336,,,0,
1672,,Los Mañios / Las Araucarias,,-41.3836796262327,-72.9171152797622,,,0,
1673,,Gabriela Mistral / Lo Garcia,,-41.3980276635839,-72.9186970552254,,,0,
1674,,Los Alerces / Claudio Arrau,,-41.3984276759323,-72.9132844110451,,,0,
1675,,Avenida Norte Sur / Quintupeu,,-41.4029337627355,-72.9070145975533,,,0,
1676,,Avenida Norte Sur / Quehui,,-41.404999693224,-72.9060816908074,,,0,
1677,,Circunvalacion Norte Sur / Vía Norte,,-41.4067815654882,-72.9051339619713,,,0,
1678,,Bertoldo Schmidt Hausdorf / Franz Renz,,-41.4096826387284,-72.9058325128975,,,0,
1679,,Calle Mirador / Bertoldo Schmidt Hausdorf,,-41.4101255809582,-72.9090038601189,,,0,
1680,,Avenida Transversal 2 / Cerro Guife,Senderos De Alerce,-41.407806765753,-72.9105417374345,,,0,
1681,,Avenida Transversal 2 / Cerro Juan Luis,,-41.407035730069,-72.9124641018524,,,0,
1682,,Supermercado Acuenta,Supermercado A Cuenta_ Senderos De Alerce,-41.4065607884822,-72.9147913055572,,,0,
1683,"",Copiapó / Juan Soler Manfredini,"",-41.473461970964,-72.935200542328,,"",0,
1684,,Mall Paseo Costanera,Avenida Juan Soler Manfredini / Avenida España,-41.472901738227,-72.937386775463,,,0,
1685,,Supermercado Acuenta,,-41.4066996945926,-72.9148447840614,,,0,
1686,,Avenida Transversal 2 / Cerro Guife,,-41.4079466370621,-72.9103945509262,,,0,
1687,,Franz Renz / Bertoldo Schmidt Hausdorf,Artesanos De Alerce,-41.40953372019,-72.9055568773155,,,0,
1688,,Avenida Transversal 2 / Franz Renz,,-41.4074247420695,-72.9060003730164,,,0,
1689,,Avenida Los Alerces / Pedro De Valdivia,,-41.3975693264221,-72.9087160294303,,,0,
1691,,José Miguel Carrera / Magallanes,,-41.457556,-72.950064,,,0,
1692,,Nueva Oriente / Panamericana Norte Servicio,,-41.454979,-72.954401,,,0,
1693,,José Miguel Carrera / Avenida Parque Industrial,,-41.460644,-72.948534,,,0,
1694,,Avenida Presidente Ibañez / Quellón,,-41.463058,-72.931393,,,0,
1695,,Avenida Norte Sur 2 / Avenida Transversal 3,,-41.3893537051964,-72.9082236908073,,,0,
1696,,Avenida Norte Sur 2 / O´Higgins,,-41.39332562303,-72.9064887374344,,,0,
1697,,Avenida Norte Sur 2 / Avenida Los Alerces,Feria Alerce,-41.396726856133,-72.904470682209,,,0,
1698,,Avenida Norte Sur 2 / Avenida Transversal 3,Cerca Liceo Industrial Alerce,-41.3894147052417,-72.9080838306885,,,0,
1699,,Arturo Pacheco Altamirano / Camilo Mori Serrano,,-41.380849749064,-72.8996392883606,,,0,
1700,,Magallanes / Séptimo De Línea,,-41.4551905328314,-72.9468278098565,,,0,
1701,,Avenida Presidente Ibañez / Chacabuco,,-41.463079,-72.929589,,,0,
1702,,Avenida Presidente Ibañez / Quellón,,-41.462926,-72.930956,,,0,
1703,,Avenida Presidente Ibañez / Volcán Michimavida,,-41.4642989940726,-72.9150063485489,,,0,
1704,,Volcán Michimavida / Ricardo García,,-41.453515144165,-72.9112037460327,,,0,
1705,,Calle Nueva Uno / Obispo Juan González,,-41.449782698057,-72.9127171018524,,,0,
1706,,Calle Nueva Tres / Calle Nueva Uno,,-41.4507886678221,-72.9100874196434,,,0,
1707,,Calle Nueva Uno / Calle Nueva Tres,,-41.4504337090329,-72.9104204196435,,,0,
1708,,Calle Nueva Uno / Calle Nueva Dos,,-41.4502157920263,-72.9113216822089,,,0,
1709,,The American School,,-41.4563208774832,-72.9115991018524,,,0,
1710,,Cerro Tronador / Marcelo Fourcade,,-41.458541797187,-72.9080901951065,,,0,
1712,,Avenida Presidente Ibañez / Carlos Walker,,-41.462199,-72.920202,,,0,
1713,"",Terminal De Buses Línea 1,"",-41.381768,-72.86029,,"",0,
1714,,Avenida Angelmó / Miraflores,Avenida Angelmó,-41.4804305931614,-72.9547826908073,,,0,
1715,,Avenida Angelmo / Chorrillos,Terminal,-41.4809696694287,-72.9559739619713,,,0,
1716,,Terminal De Buses Línea 6,,-40.593449,-73.171008,,,0,
1717,,Walterio Mayer / San Agustín,,-40.589597,-73.175399,,,0,
1718,,Walterio Mayer / Ancud,,-40.588444,-73.173786,,,0,
1719,,Argentina / Bombero Agustín Labra,,-40.587176,-73.168467,,,0,
1720,,Argentina / Real,,-40.588418,-73.167386,,,0,
1721,,Real / El Salvador,,-40.585056,-73.164767,,,0,
1722,,Real / Guillermo Schwencke,,-40.583652,-73.163714,,,0,
1723,,Real / Lupecio Martínez,,-40.582437,-73.162273,,,0,
1724,,Real / Erwin Piwonka,,-40.580742,-73.161094,,,0,
1725,,República / Iquique,,-40.574242,-73.149158,,,0,
1726,,República / Por La Razón O La Fuerza,,-40.574351,-73.147617,,,0,
1727,,Francisco Bilbao / Portales,,-40.575711,-73.13919,,,0,
1728,,Francisco Bilbao / Manuel Bulnes,,-40.575743,-73.138603,,,0,
1729,,Francisco Bilbao / Bernardo O´Higgins,,-40.575876,-73.135907,,,0,
1730,,Francisco Bilbao / Manuel Antonio Matta,,-40.575911,-73.135051,,,0,
1731,,Francisco Bilbao / Ramón Freire,,-40.576047,-73.132064,,,0,
1732,,Arturo Prat / Barros Araña,,-40.58157,-73.128798,,,0,
1733,,Doctor Guillermo Buhler / Los Conquistadores,,-40.584228,-73.128701,,,0,
1734,,Doctor Guillermo Buhler / Hospital Del Trabajador,,-40.586704,-73.127961,,,0,
1735,,Hospital Osorno,,-40.587341,-73.127094,,,0,
1736,,César Ercilla / Doctor Guillermo Buhler,,-40.587999,-73.125999,,,0,
1737,,César Ercilla / Zenteno,,-40.585637,-73.121302,,,0,
1738,,Zenteno / Hermanos Phillipi,,-40.583328,-73.122123,,,0,
1739,,Hermanos Phillipi / Cervantes,,-40.581519,-73.120147,,,0,
1740,,Alcalde René Soriano Bórquez / Diego De Almagro,,-40.58393,-73.108529,,,0,
1741,,Alcalde René Soriano Bórquez / Alsacia,,-40.587498,-73.103431,,,0,
1742,,Francia / Luisa Schöner,,-40.589599,-73.103643,,,0,
1743,,Zenteno / Lauca,,-40.590492,-73.115737,,,0,
1744,,Doctor Guillermo Buhler / Hospital Del Trabajador,,-40.586911,-73.127329,,,0,
1745,,Doctor Guillermo Buhler / Santiago Rosas,,-40.584114,-73.128441,,,0,
1746,,Ramón Freire / Barros Araña,,-40.581289,-73.129904,,,0,
1747,,Ramón Freire / Conrado Amthauer,,-40.578938,-73.130915,,,0,
1748,,Ramón Freire / Manuel Rodríguez,,-40.577701,-73.130956,,,0,
1749,,Ramón Freire / Francisco Bilbao,"",-40.575613,-73.131124,,,0,
1750,,Ramón Freire / Los Carrera,"",-40.572416,-73.13149,,,0,
1751,,Los Carrera / Lord Cochrane,,-40.57185,-73.134135,,,0,
1752,,Los Carrera / Manuel Antonio Matta,,-40.571839,-73.134376,,,0,
1753,,Los Carrera / Bernardo O`Higgins,,-40.571692,-73.137645,,,0,
1754,,Los Carrera / Manuel Bulnes,,-40.571679,-73.137948,,,0,
1755,,Portales / Los Carrera,,-40.572127,-73.140436,,,0,
1756,,Portales / Eleuterio Ramírez,,-40.5732,-73.140373,,,0,
1757,,Por La Razón O La Fuerza / Concepción,,-40.577731,-73.14856,,,0,
1758,,Concepción / Iquique,,-40.578073,-73.149363,,,0,
1759,,Real / Chacarillas,,-40.592951,-73.170624,,,0,
1760,,Real / Beethoven,,-40.591078,-73.169043,,,0,
1761,,Real / Mozart,,-40.589558,-73.167979,,,0,
1762,,Guillermo Schwencke / Víctor Villalón,,-40.584659,-73.160634,,,0,
1763,,Chillán / Miraflores,,-40.582616,-73.155739,,,0,
1764,,Chillán / Llanquihue,,-40.580958,-73.155286,,,0,
1765,,Chillán / Temuco,,-40.578794,-73.154983,,,0,
1766,,Diego De Almagro / El Dorado,,-40.590301,-73.116884,,,0,
1767,,Le Mans / Eduardo Meyer E,,-40.597027,-73.104967,,,0,
1768,,Francia / Luisa Schöner,,-40.58933,-73.102927,,,0,
1769,,César Ercilla / Julio Buschman,,-40.576721,-73.111518,,,0,
1770,,Julio Buschman / Pedro Aguirre Cerda,,-40.576102,-73.114047,,,0,
1771,,Patricio Lynch / Manuel Montt,,-40.575262,-73.117381,,,0,
1772,,Patricio Lynch / José Manuel Balmaceda,,-40.574865,-73.118831,,,0,
1773,,Patricio Lynch / Andrés Bello,,-40.574494,-73.120792,,,0,
1774,,Patricio Lynch / Angúlo,,-40.574355,-73.12389,,,0,
1775,,Cristóbal Colón / Patricio Lynch,,-40.573799,-73.127625,,,0,
1776,,Los Carrera / Arturo Prat,,-40.572043,-73.13013,,,0,
1777,,Los Carrera / Ramón Freire,,-40.572008,-73.13096,,,0,
1778,,República / Por La Razón O La Fuerza,,-40.57414,-73.148156,,,0,
1779,,República / Antofagasta,,-40.573969,-73.150652,,,0,
1780,,República / Talca,,-40.573883,-73.151848,,,0,
1781,,Chillán / República,,-40.574267,-73.154333,,,0,
1782,,Chillán / Valparaíso,,-40.576148,-73.154673,,,0,
1783,,Terminal Lagunitas,,-41.444424,-73.007452,,,0,
1784,,Avenida Cardonal / Camino Aeropuerto,,-41.451474,-73.011889,,,0,
1785,,Camino Aeropuerto,,-41.455163,-73.004407,,,0,
1786,,Feria Lagunitas,Cardonal,-41.456122,-73.00204,,,0,
1787,,Camino Aeropuerto / Canal Albatros,,-41.459182,-72.994776,,,0,
1788,,Canal Albatros / Canal Desertores,Canal Desertores - Canal Albatros,-41.4612,-72.995078,,,0,
1789,,Capitán Avalos / Canal Icy,,-41.46424,-72.996348,,,0,
1790,,Final Conjunto Puerta Sur,,-41.467036,-72.99875,,,0,
1791,,Vega / Pasaje Gacrux,,-41.46413,-72.986192,,,0,
1792,,Avenida Cardonal / Avenida Nueva,Cardonal,-41.468785,-72.970385,,,0,
1793,,Avenida Cardonal / Pasaje San Andrés,,-41.4695,-72.96853,,,0,
1794,,Avenida Presidente Ibañez / Eleuterio Ramírez,,-41.469835,-72.963362,,,0,
1795,,Santa Inés / Las Lumas,Poblacion Techo Para Todos,-41.463687,-72.963315,,,0,
1796,,Avenida Parque Industrial / Santa Inés,Linea 10v1 / 10t,-41.458868,-72.962328,,,0,
1797,,Avenida Parque Industrial / Avenida Presidente Salvador Allende,Linea 10t,-41.46006,-72.956857,,,0,
1798,,Avenida Parque Industrial / Pasaje Los Melis,,-41.4606723022851,-72.9524513029022,,,0,
1799,,Mercado Municipal Ibañez,,-41.463501,-72.950731,,,0,
1800,,José Miguel Carrera / Avenida Parque Industrial,,-41.460712,-72.948376,,,0,
1801,,Séptimo De Línea / José Águila,,-41.459127,-72.942583,,,0,
1802,,Séptimo De Línea / Pinto Agüero,,-41.4599888687517,-72.9412258220901,,,0,
1803,,Castro / Huildad,,-41.4606316574351,-72.9376832503319,,,0,
1804,,Castro / Chonchi,,-41.4608587885551,-72.935540364418,,,0,
1805,,Castro / Achao,,-41.461073,-72.933331,,,0,
1806,,Dalcahue / Tenaum,,-41.4608398791639,-72.9300602159386,,,0,
1807,,Dalcahue / Vilcún,,-41.4608938489814,-72.9295023177909,,,0,
1808,,Avenida Presidente Ibañez / Lautaro,,-41.4624098597067,-72.9201331865082,,,0,
1809,,Avenida Presidente Ibañez / Volcán Michimavida,,-41.4642989940726,-72.9150063485489,,,0,
1810,,Quellón / Castro,,-41.4610004565772,-72.9309811484794,,,0,
1811,,Magallanes / Séptimo De Línea,,-41.4551905328314,-72.9468278098565,,,0,
1812,,José Miguel Carrera / Avenida Parque Industrial,,-41.460644,-72.948534,,,0,
1813,,Supermercado Lider,,-41.460718,-72.950378,,,0,
1814,,Avenida Parque Industrial / Los Melis,,-41.460464,-72.952432,,,0,
1815,,Avenida Parque Industrial / Panamericana Norte Servicio,,-41.4602796873203,-72.9536795558892,,,0,
1816,,Avenida Parque Industrial / Panamericana Sur,,-41.459739,-72.956801,,,0,
1817,,Avenida Parque Industrial / Santa Inés,,-41.458503,-72.962258,,,0,
1818,,Santa Inés / Los Alamos,,-41.459203,-72.963401,,,0,
1819,,Santa Inés / San Antonio,Consultorio Techo Para Todos,-41.461726,-72.964402,,,0,
1820,,Santa Inés / Los Coihues,Sta. Inés / Los Copihues,-41.464954,-72.962657,,,0,
1821,,Santa Inés / San Juan,,-41.467482,-72.960965,,,0,
1822,,Avenida Cardonal / Pasaje Vivar,Frente Multiexport Foods,-41.467208,-72.974054,,,0,
1824,,Camino Aeropuerto / Canal Albatros,,-41.459118,-72.994087,,,0,
1825,,Canal Albatros / Canal Lemuy,,-41.460547,-72.99461,,,0,
1826,,Feria Lagunitas,,-41.456145,-73.001644,,,0,
1827,,Camino Aeropuerto / Avenida Dagoberto Godoy,,-41.461269,-72.989343,,,0,
1828,,Camino Aeropuerto / Calle 1 Oriente,,-41.46245,-72.985433,,,0,
1829,,Avenida Presidente Ibañez / Cartagena,Poblacion Bernardo O´Higgins,-41.472287,-72.970183,,,0,
1830,,Avenida Presidente Ibañez / Los Lirios,Poblacion Arturo Prat,-41.473466,-72.97234,,,0,
1831,,Avenida Presidente Ibañez / Las Camelias,,-41.474316,-72.974119,,,0,
1832,,Las Camelias / Crucero,Pobl. Mirasol,-41.477998,-72.9697,,,0,
1833,,Crucero / Las Margaritas,,-41.477464,-72.96843,,,0,
1834,,Crucero / Diego Portales,Linea 10v1 / L10t,-41.47573,-72.965031,,,0,
1835,,Los Sauces / Crucero,Pobl. Crucero,-41.475727,-72.964011,,,0,
1836,,Crucero / Eduardo Wolleter,,-41.474476,-72.960336,,,0,
1837,,Ecuador / Vicente Pérez Rosales,,-41.4730551473998,-72.9537157202377,,,0,
1838,,Lota / Avenida Diego Portales,,-41.476421,-72.950062,,,0,
1839,,Avenida Diego Portales / Valdivia,,-41.475344,-72.94794,,,0,
1840,,Avenida Diego Portales / Talcahuano,,-41.474626,-72.947026,,,0,
1841,,Avenida Diego Portales / Chillán,,-41.473811,-72.944365,,,0,
1842,,Avenida Diego Portales / Talca,,-41.473531,-72.943305,,,0,
1843,,Avenida Diego Portales / Guillermo Gallardo,,-41.472963,-72.940489,,,0,
1844,,Avenida Egaña / Illapel,,-41.4722869222803,-72.9370205423279,,,0,
1845,,Avenida Egaña / Serena,,-41.472278825132,-72.935972165676,,,0,
1846,,Benavente / Illapel,,-41.4708016583946,-72.9363914662705,,,0,
1847,,Benavente / Quillota,,-41.47066,-72.938407,,,0,
1848,,Mall Paseo Del Mar,Benavente,-41.471392,-72.943326,,,0,
1849,,Benavente / Cauquenes,,-41.4714256785512,-72.9441632037048,,,0,
1850,,Benavente / Manuel Rodríguez,Linea 10v1 - 10t,-41.4724677378637,-72.9512577754631,,,0,
1851,,Avenida Presidente Ibañez / Veintidos De Mayo,,-41.467074,-72.956976,,,0,
1852,,Avenida Presidente Ibañez / San Antonio,,-41.468162,-72.958925,,,0,
1853,,Avenida Presidente Ibañez / San Antonio,Linea 10t,-41.467949,-72.959022,,,0,
1854,,Cervecera Stange,Villa Las Industrias,-41.455273,-72.959062,,,0,
1855,,Andacollo / Bima,Linea 10t,-41.454554,-72.959881,,,0,
1856,,Andacollo / Ganadera Aysén,Poblacion Ampliacion Las Industrias,-41.45394,-72.960646,,,0,
1857,,Andacollo / Los Ebanistas,Poblacion Villa Artesania,-41.452528,-72.962789,,,0,
1858,,Los Talabarteros / Nueva Uno,Los Hojalateros - Sagrada Familia,-41.450337,-72.962271,,,0,
1859,,Nueva Uno / Pasaje Dos,Poblacion Chile Barrio,-41.449277,-72.963357,,,0,
1860,,Nueva Dos / Pasaje Cuatro,Poblacion Chile Barrio,-41.448871,-72.96147,,,0,
1861,,Nueva Dos / Pasaje Tres,Jardin Estrellitas De Belen,-41.449861,-72.960065,,,0,
1862,,El Tte / Camino Chin Chin,Poblacion Cayenel,-41.449407,-72.95779,,,0,
1863,,Canal Albatros / Canal Lemuy,Conjunto Puerta Sur,-41.460391,-72.994751,,,0,
1864,,Vega / Pasaje Angol,,-41.463529,-72.985771,,,0,
1865,,Avenida Cardonal / Cobarrubia,,-41.469008,-72.969894,,,0,
1866,,Benavente / Rancagua,Linea 10t,-41.4709936488498,-72.9414489239426,,,0,
1867,,Pargua,Rampa Pargua,-41.792775,-73.458981,,,0,
1868,,Chacao,Rampa Chacao,-41.829126,-73.515615,,,0,
1869,,Maximiliano Uribe / Puerto Natales,L5a - B - C - D,-41.476789,-72.985595,,,0,
1870,,Maximiliano Uribe,L5a - B - C - D,-41.477604,-72.984156,,,0,
1871,,Maximiliano Uribe / Nueva Dos,L5a - B - C - D,-41.478516,-72.982758,,,0,
1872,,Puerto Lara / Pasaje San Eugenio,,-41.480794,-72.989352,,,0,
1873,"",Puerto Lara / Puerto Melinka,"",-41.479271346743,-72.990108417162,,"",0,
1874,,Puerto Darwin / Puerto Fonck,,-41.478802,-72.99464,,,0,
1875,,Avenida Vicuña Mackenna / Los Cisnes,,-41.478254,-72.99151,,,0,
1876,,Avenida Vicuña Mackenna / Las Perdices,,-41.477272,-72.989743,,,0,
1877,,Avenida Vicuña Mackenna / Las Avestruces,,-41.476518,-72.988335,,,0,
1878,,Maximiliano Uribe / Francisco Errázuriz,,-41.47529,-72.986789,,,0,
1879,,Francisco Errázuriz / Pasaje Dos,,-41.474218,-72.986797,,,0,
1880,,Calle A / Avenida La Cruz,,-41.473216,-72.986348,,,0,
1881,,Calle A / Volcán Apagado,,-41.472679,-72.98577,,,0,
1882,,Vía Antártica / Vía Del Mediterráneo,,-41.470377,-72.981163,,,0,
1883,,Vía Antártica / Vicuña Mackenna,L5a - B - C - D,-41.47167,-72.97996,,,0,
1884,,Vicuña Mackenna / Osvaldo Wistuba,,-41.472511,-72.981099,,,0,
1885,,Vicuña Mackenna / Avenida Jorge Alessandri,,-41.473176,-72.982402,,,0,
1886,,Vicuña Mackenna / Avenida La Cruz,,-41.474302,-72.984469,,,0,
1887,,Sapu Padre Hurtado,,-41.474842,-72.984088,,,0,
1888,,Colegio Católico Beato Federico Ozanam,L5a - C - D,-41.475305,-72.983356,,,0,
1889,,Avenida La Cruz / Calle B,,-41.475832,-72.98237,,,0,
1890,,Avenida La Cruz / Calle A,,-41.476368,-72.981327,,,0,
1891,,Avenida La Cruz / Hogar De Cristo,,-41.477708,-72.979016,,,0,
1892,,Los Notros / Imprenta,,-41.480245,-72.974348,,,0,
1893,,Los Sauces / Crucero,,-41.475727,-72.964011,,,0,
1894,,Avenida Presidente Ibañez / Eleuterio Ramírez,,-41.469835,-72.963362,,,0,
1895,,Avenida Presidente Ibañez / San Antonio,,-41.468162,-72.958925,,,0,
1896,,Avenida Presidente Ibañez / Veintidos De Mayo,,-41.467074,-72.956976,,,0,
1897,,Avenida Presidente Ibañez / República,,-41.466326,-72.955818,,,0,
1898,,Mercado Municipal Ibañez,,-41.463501,-72.950731,,,0,
1899,,José Miguel Carrera / Avenida Parque Industrial,,-41.460712,-72.948376,,,0,
1900,,Séptimo De Línea / José Águila,,-41.459127,-72.942583,,,0,
1901,,Séptimo De Línea / Pinto Agüero,,-41.4599888687517,-72.9412258220901,,,0,
1902,,Castro / Huildad,,-41.4606316574351,-72.9376832503319,,,0,
1903,,Castro / Chonchi,,-41.4608587885551,-72.935540364418,,,0,
1904,,Castro / Achao,,-41.461073,-72.933331,,,0,
1905,,Dalcahue / Tenaum,,-41.4608398791639,-72.9300602159386,,,0,
1906,,Dalcahue / Vilcún,,-41.4608938489814,-72.9295023177909,,,0,
1908,,Avenida Presidente Ibañez / Volcán Michimavida,,-41.4642989940726,-72.9150063485489,,,0,
1909,,Avenida Presidente Ibañez / Carlos Walker,,-41.462199,-72.920202,,,0,
1910,,Volcán Puntiagudo / Quinoa,,-41.460177,-72.923724,,,0,
1911,,Volcán Tulapalca / Caren,,-41.45383,-72.930146,,,0,
1912,,Caren / El Tepual,,-41.4555868362823,-72.9305925042992,,,0,
1913,,Avenida Monseñor Ramón Munitas / Caren,,-41.4561486629243,-72.930900025795,,,0,
1914,,Avenida Monseñor Ramón Munitas / Curepto,,-41.4557929386423,-72.9322976061516,,,0,
1915,,Avenida Monseñor Ramón Munitas / Sargento Silva,L5c,-41.454699,-72.93499,,,0,
1916,,Sargento Silva / Séptimo De Línea,,-41.4603347478769,-72.9394098306885,,,0,
1917,,Séptimo De Línea / Moisés Arce,,-41.459233,-72.94222,,,0,
1918,,Magallanes / Séptimo De Línea,,-41.4551905328314,-72.9468278098565,,,0,
1919,,José Miguel Carrera / Avenida Parque Industrial,L5c,-41.460644,-72.948534,,,0,
1920,,Supermercado Lider,,-41.460718,-72.950378,,,0,
1921,,Avenida Parque Industrial / Los Melis,L5c,-41.460464,-72.952432,,,0,
1922,,Avenida Parque Industrial / Panamericana Norte Servicio,,-41.4602796873203,-72.9536795558892,,,0,
1923,,Avenida Parque Industrial / Panamericana Sur,,-41.459739,-72.956801,,,0,
1924,,Avenida Parque Industrial / Santa Inés,,-41.458503,-72.962258,,,0,
1925,,Santa Inés / Los Alamos,,-41.459203,-72.963401,,,0,
1926,,Santa Inés / San Antonio,,-41.461726,-72.964402,,,0,
1927,,Santa Inés / Los Coihues,,-41.464954,-72.962657,,,0,
1928,,Santa Inés / San Juan,,-41.467482,-72.960965,,,0,
1929,,Crucero / Diego Portales,,-41.47573,-72.965031,,,0,
1930,,Crucero / Las Gaviotas,,-41.477263,-72.968426,,,0,
1931,,Avenida La Cruz / Calle B,,-41.475597,-72.982348,,,0,
1932,,Calle A / Pasaje Tres,,-41.470477,-72.98461,,,0,
1933,,Maximiliano Uribe,L5a - B - C,-41.47724,-72.984459,,,0,
1934,,Terminal Línea 5,,-41.476175,-72.986487,,,0,
1935,,Avenida Los Lagos / Volcán Apagado,,-41.477282,-72.977542,,,0,
1936,,Volcán Osorno / Volcán Casablanca,,-41.479066,-72.976949,,,0,
1937,,Los Notros / Volcán Melimoyu,,-41.480249,-72.975826,,,0,
1938,,Santa Inés / Las Lumas,,-41.463687,-72.963315,,,0,
1939,,Avenida Parque Industrial / Santa Inés,,-41.458868,-72.962328,,,0,
1940,,Avenida Parque Industrial / Avenida Presidente Salvador Allende,,-41.46006,-72.956857,,,0,
1941,,Avenida Parque Industrial / Pasaje Los Melis,,-41.4606723022851,-72.9524513029022,,,0,
1942,,Magallanes / Avenida Parque Industrial,,-41.4603257982929,-72.9514343263893,,,0,
1943,,Avenida Monseñor Ramón Munitas / Sargento Silva,,-41.4551488155743,-72.9355791570778,,,0,
1944,,Avenida Monseñor Ramón Munita / Caren,,-41.4564150612442,-72.9309635128974,,,0,
1945,,Mataveri / Volcán Tulapalca,,-41.4541746609054,-72.9279217374344,,,0,
1946,,Mataveri / Calle C,,-41.4560276832349,-72.9280751951064,,,0,
1947,,Avenida Monseñor Ramón Munitas / Las Golondrinas,L5c,-41.457118,-72.926489,,,0,
1948,,Volcán Puntiagudo / Quinoa,,-41.460371,-72.923949,,,0,
1949,,Avenida Presidente Ibañez / Lautaro,,-41.4624098597067,-72.9201331865082,,,0,
1950,,Avenida Presidente Ibañez / San Antonio,,-41.467949,-72.959022,,,0,
1951,,Crucero / Las Margaritas,"",-41.477464,-72.96843,,,0,
1952,,Crucero / Eduardo Wolleter,,-41.474476,-72.960336,,,0,
1953,,Lota / Avenida Diego Portales,Biblioteca Regional,-41.476421,-72.950062,,,0,
1954,,Avenida Diego Portales / Valdivia,,-41.475344,-72.94794,,,0,
1955,,Avenida Diego Portales / Chillán,,-41.473811,-72.944365,,,0,
1956,,Avenida Diego Portales / Talca,,-41.473531,-72.943305,,,0,
1957,,Avenida Diego Portales / Guillermo Gallardo,,-41.472963,-72.940489,,,0,
1958,,Avenida Egaña / Illapel,,-41.4722869222803,-72.9370205423279,,,0,
1959,,Avenida Egaña / Serena,,-41.472278825132,-72.935972165676,,,0,
1960,,Benavente / Illapel,,-41.4708016583946,-72.9363914662705,,,0,
1961,,Mall Paseo Del Mar,Benavente,-41.471392,-72.943326,,,0,
1962,,Benavente / Cauquenes,,-41.4714256785512,-72.9441632037048,,,0,
1963,,Benavente / Manuel Rodríguez,Linea 10v1 - 10t,-41.4724677378637,-72.9512577754631,,,0,
1964,,Ecuador / Vicente Pérez Rosales,,-41.4730551473998,-72.9537157202377,,,0,
1965,,Sierra Nevada / Los Sauces,,-41.480454,-72.964798,,,0,
1966,,Avenida Diego Portales / Talcahuano,,-41.474626,-72.947026,,,0,
1967,,Egaña / Covadonga,,-41.47167,-72.931315,,,0,
1968,,Egaña / Francisco Bilbao,,-41.471155,-72.927816,,,0,
1969,,Egaña / Deber Cumplido,,-41.470714,-72.924426,,,0,
1970,,Egaña / Manuel Montt,,-41.470363,-72.920635,,,0,
1971,,Río Puelche / Jorge Lindermann,,-41.474484,-72.917125,,,0,
1972,,Río Puelche / General Arturo Merino Benítez,,-41.475897,-72.915016,,,0,
1973,,General Arturo Merino Benítez / Lago Huillinco,,-41.4742926525318,-72.9128240171967,,,0,
1974,,General Arturo Merino Benítez / Lago Puyehue,,-41.4719040680909,-72.9100414454384,,,0,
1975,,Lago Puyehue / Río Vilcún,,-41.4707828340579,-72.9109257840614,,,0,
1976,,Lago Vidal Gormaz / Lago Ranco,,-41.4697187943226,-72.9120156908073,,,0,
1977,,Regimiento / Pasaje Cinco,,-41.4679586060746,-72.9169120085983,,,0,
1978,,Regimiento / Serrano,,-41.4685297542275,-72.9269239619713,,,0,
1980,,Ejército / Seminario,,-41.4690868822316,-72.9350245681229,,,0,
1981,,Quillota / Benavente,,-41.470912,-72.938609,,,0,
1982,,Avenida Diego Portales / San Martín,,-41.472682,-72.940369,,,0,
1983,,Benavente / Quillota,,-41.47066,-72.938407,,,0,
1984,,Mall Paseo Costanera,Avenida Juan Soler Manfredini / Avenida España,-41.473015748013,-72.937563309193,,,0,
1985,,Copiapó / Egaña,,-41.472293,-72.934666,,,0,
1986,,Achs,Asociacion Chilena De Seguridad,-41.4689475876686,-72.9339155975532,,,0,
1987,,Jumbo / Easy,Hotelera Diego De Almagro,-41.4679495568283,-72.9323674576722,,,0,
1988,,Francisco Bilbao / Regimiento,,-41.4687136856007,-72.9288441018524,,,0,
1989,,Regimiento / Pasaje Uno,,-41.4685056952248,-72.9184829153443,,,0,
1990,,Los Cerezos / Lago Ranco,,-41.4692747548049,-72.9115354662705,,,0,
1991,,General Arturo Merino Benítez / Lago Villarrica,,-41.473158815936,-72.9114659705696,,,0,
1992,,Maraton / Los Queltehues,,-41.4720183583831,-72.9158052589302,,,0,
1993,,Maraton / Helmuth Stange,,-41.4711697757703,-72.9149192883605,,,0,
1994,,Egaña / Pasaje Larraín,,-41.470308,-72.915653,,,0,
1995,,Egaña / Juan Martínez Aldunate,,-41.470213,-72.918364,,,0,
1996,,Egaña / Manuel Montt,,-41.47018,-72.920734,,,0,
1997,,Egaña / Tucapel,L5b,-41.470658,-72.925269,,,0,
1998,,Egaña / Gabriela Mistral,,-41.470973,-72.927648,,,0,
1999,,Egaña / Phillippi,,-41.471612,-72.932207,,,0,
2000,,Sierra Nevada / Yates,,-41.479717,-72.96609,,,0,
2001,,Los Notros / Puerto Chacabuco,,-41.480265,-72.979027,,,0,
2002,,Dalcahue / Vilcún,,-41.4607827582944,-72.929495,,,0,
2003,,Quellón / Castro,,-41.4610004565772,-72.9309811484794,,,0,
2004,,Avenida Presidente Ibañez / Simón Cordovez,,-41.463228,-72.929611,,,0,
2005,,Avenida Presidente Ibañez / Ejército,,-41.463695,-72.927667,,,0,
2006,,Ejército / Población Lago Chapo,,-41.466164,-72.927865,,,0,
2007,,Ejército / Los Leones,Escuela Particular N. 192 San Jose Particular Subvencionado,-41.4665729208632,-72.9318532417335,,,0,
2008,,Avenida Diego Portales / Pedro Montt,Avenida Diego Portales,-41.47294,-72.941797,,,0,
2009,,Avenida Diego Portales / Chillán,Avenida Diego Portales,-41.4734405548121,-72.9442916441802,,,0,
2010,,Benavente / Rancagua,Linea 10t,-41.4709936488498,-72.9414489239426,,,0,
2011,,Copiapó / Avenida Juan Soler Manfredini,,-41.47355,-72.935072,,,0,
2012,,Ejército / Los Leones,,-41.466724871466,-72.9316689705696,,,0,
2013,,Ejército / Los Eucaliptus,,-41.465351,-72.926714,,,0,
2014,,Ejército / Avenida Presidente Ibañez,,-41.463812,-72.927012,,,0,
2015,,Avenida Presidente Ibañez / Chacabuco,,-41.463079,-72.929589,,,0,
2016,,Avenida Presidente Ibañez / Quellón,,-41.462926,-72.930956,,,0,
2017,,Sargento Silva / Antihual,,-41.457840918698,-72.9374188859139,,,0,
2019,,Real / Chacarillas,,-40.592951,-73.170624,,,0,
2020,,Real / Beethoven,,-40.591078,-73.169043,,,0,
2021,,Real / Mozart,,-40.589558,-73.167979,,,0,
2022,,Real / El Salvador,,-40.585056,-73.164767,,,0,
2023,,Real / Guillermo Schwencke,,-40.583652,-73.163714,,,0,
2024,,Real / Lupecio Martínez,,-40.582437,-73.162273,,,0,
2025,,Real / Erwin Piwonka,,-40.580742,-73.161094,,,0,
2026,,República / Chillán,,-40.573989,-73.154627,,,0,
2027,,República / Iquique,,-40.574242,-73.149158,,,0,
2028,,República / Por La Razón O La Fuerza,,-40.574351,-73.147617,,,0,
2029,,Francisco Bilbao / Portales,,-40.575711,-73.13919,,,0,
2030,,Francisco Bilbao / Manuel Bulnes,,-40.575743,-73.138603,,,0,
2031,,Francisco Bilbao / Bernardo O´Higgins,,-40.575876,-73.135907,,,0,
2032,,Francisco Bilbao / Manuel Antonio Matta,,-40.575911,-73.135051,,,0,
2033,,Francisco Bilbao / Ramón Freire,,-40.576047,-73.132064,,,0,
2034,,Arturo Prat / Barros Araña,,-40.58157,-73.128798,,,0,
2035,,Doctor Guillermo Buhler / Los Conquistadores,,-40.584228,-73.128701,,,0,
2036,,Doctor Guillermo Buhler / Hospital Del Trabajador,,-40.586704,-73.127961,,,0,
2037,,Hospital Osorno,,-40.587341,-73.127094,,,0,
2038,,César Ercilla / Doctor Guillermo Buhler,,-40.587999,-73.125999,,,0,
2039,,César Ercilla / Zenteno,,-40.585637,-73.121302,,,0,
2040,,Dieciocho De Septiembre / Las Amapolas,,-40.585929,-73.116832,,,0,
2041,,César Ercilla / Pasaje Dos,,-40.580831,-73.115869,,,0,
2042,,César Ercilla / Julio Buschman,,-40.576721,-73.111518,,,0,
2043,,Julio Buschman / Pedro Aguirre Cerda,,-40.576102,-73.114047,,,0,
2044,,Patricio Lynch / Manuel Montt,,-40.575262,-73.117381,,,0,
2045,,Patricio Lynch / José Manuel Balmaceda,,-40.574865,-73.118831,,,0,
2046,,Patricio Lynch / Andrés Bello,,-40.574494,-73.120792,,,0,
2047,,Patricio Lynch / Angúlo,,-40.574355,-73.12389,,,0,
2048,,Cristóbal Colón / Patricio Lynch,,-40.573799,-73.127625,,,0,
2049,,Los Carrera / Arturo Prat,,-40.572043,-73.13013,,,0,
2050,,Los Carrera / Ramón Freire,,-40.572008,-73.13096,,,0,
2051,,Los Carrera / Lord Cochrane,,-40.57185,-73.134135,,,0,
2052,,Los Carrera / Manuel Antonio Matta,,-40.571839,-73.134376,,,0,
2053,,Los Carrera / Bernardo O`Higgins,,-40.571692,-73.137645,,,0,
2054,,Los Carrera / Manuel Bulnes,,-40.571679,-73.137948,,,0,
2055,,Portales / Los Carrera,,-40.572127,-73.140436,,,0,
2056,,Portales / Eleuterio Ramírez,,-40.5732,-73.140373,,,0,
2057,,República / Por La Razón O La Fuerza,,-40.57414,-73.148156,,,0,
2058,,República / Antofagasta,,-40.573969,-73.150652,,,0,
2059,,República / Talca,,-40.573883,-73.151848,,,0,
2060,,Chillán / República,,-40.574267,-73.154333,,,0,
2061,,Chillán / Valparaíso,,-40.576148,-73.154673,,,0,
2063,,Chacarillas / Las Nieves,,-40.577465,-73.178113,,,0,
2064,,Del Pacífico / Bahía Escocia,,-40.579788,-73.176277,,,0,
2065,,Bahía Escocia / Quilanto,,-40.58024,-73.1757,,,0,
2066,,Acapulco / Venecia,,-40.582877,-73.176596,,,0,
2067,,Acapulco / Pasaje Mar Del Plata,,-40.58349,-73.177071,,,0,
2094,,Chacarillas / Pasaje Puerto Huillín,,-40.579353,-73.177557,,,0,
2095,,Azapa / Chacarillas,,-40.576721,-73.178078,,,0,
2096,,Azapa / Illapel,,-40.576237,-73.174579,,,0,
2097,,Azapa / Nueva Poniente,,-40.576027,-73.17311,,,0,
2098,,Rampa Dalcahue,"",-42.382058,-73.655404,,,0,
2099,,Rampa Isla Quinchao,,-42.388097,-73.655782,,,0,
2100,,Terminal Línea 2,"",-43.113114,-73.568158,,,0,
2101,,"Camino San Antonio Km. 2, 6","",-43.116151,-73.573741,,,0,
2102,,"Camino San Antonio Km. 2, 5","",-43.116618,-73.575418,,,0,
2103,,"Camino San Antonio Km. 2, 2","",-43.117509,-73.578805,,,0,
2104,,"Camino San Antonio Km. 2, 0","",-43.11746,-73.581825,,,0,
2105,,"Camino San Antonio Km. 1, 5","",-43.117276,-73.587653,,,0,
2106,,"Camino San Antonio Km. 1, 1","",-43.118139,-73.591665,,,0,
2107,,"Camino San Antonio Km. 0, 3",,-43.1173921999486,-73.6006300552253,,,0,
2108,,"Camino San Antonio Km. 0, 1",,-43.1171685368883,-73.6029792797623,,,0,
2109,,Juan Ladrilleros / Independencia,"",-43.117727,-73.610604,,,0,
2110,,Progreso / Los Cultores,,-43.1121277549324,-73.6175546908073,,,0,
2111,,Los Artesanos / German Triviño,,-43.1098858743951,-73.6174944748687,,,0,
2112,,Progreso / Los Cultores,,-43.1121882516535,-73.6177568392869,,,0,
2113,,Carlos Flaig Zurita / El Pudú,,-43.112778573364,-73.6149116441803,,,0,
2114,,Doctor Ahues / Freire,"",-43.115418,-73.616555,,,0,
2115,,Juan Ladrilleros / Freire,"",-43.117462,-73.617406,,,0,
2116,,Agustin Gómez García / Juan Ladrilleros,,-43.1175476630937,-73.6212394662705,,,0,
2117,,Pedro Aguirre Cerda / Capitán Luis Alcazar,"",-43.120353,-73.62233,,,0,
2118,,"Camino Punta De Lapas Km. 1, 8",,-43.1300347246343,-73.6428406441803,,,0,
2119,,Punta De Lapas,"",-43.138078,-73.617426,,,0,
2120,,"Camino Punta De Lapas Km. 3, 2",,-43.1314024255722,-73.6271922037048,,,0,
2121,,"Camino Punta De Lapas Km. 2, 4",,-43.1313284468407,-73.6367406319466,,,0,
2122,,"Camino Punta De Lapas Km. 1, 6",,-43.1279101749171,-73.6433543521844,,,0,
2123,,"Camino Punta De Lapas Km. 1, 4",,-43.1257888134616,-73.6433198098564,,,0,
2124,,"Camino Punta De Lapas Km. 1, 1",,-43.1231850030265,-73.6428487754631,,,0,
2125,,"Camino Punta De Lapas Km. 0, 6",,-43.1199203500947,-73.639650588955,,,0,
2126,,"Camino Punta De Lapas Km. 0, 3","",-43.118059,-73.636327,,,0,
2127,,Juan Ladrilleros / Pasaje 4,"",-43.11697,-73.626918,,,0,
2128,,Juan Ladrilleros / Balmaceda,"",-43.11725,-73.625191,,,0,
2129,,Juan Ladrilleros / Ibañez,"",-43.11732,-73.623362,,,0,
2130,,Juan Ladrilleros / La Paz,"",-43.117478,-73.619395,,,0,
2131,,Juan Ladrilleros / Freire,"",-43.117563,-73.617477,,,0,
2132,,Los Artesanos / German Triviño,,-43.1099769162575,-73.6173056355819,,,0,
2133,,Galvarino Riveros / Juan Ladrilleros,"",-43.117567,-73.612257,,,0,
2134,,Juan Ladrilleros / Independencia,,-43.1178990311466,-73.6103863263893,,,0,
2135,,Adan Bustamante / Pasaje 2,"",-43.117935,-73.607612,,,0,
2136,,Camino San Antonio / Adan Bustamante,,-43.1164747278142,-73.6045627582665,,,0,
2137,,"Camino San Antonio Km. 0, 8",,-43.1180577782604,-73.59486056316,,,0,
2138,,"Camino San Antonio Km. 2, 0","",-43.117652,-73.580994,,,0,
2139,,"Camino San Antonio Km. 2, 5","",-43.116764,-73.575493,,,0,
2140,,"Camino San Antonio Km. 3, 1","",-43.113611,-73.568457,,,0,
2144,,Terminal Calbuco,,-41.77155,-73.127121,,,0,
2145,,Terminal Municipal De Buses Puerto Montt,Diego Portales / Eusebio Lilo,-41.477348,-72.950419,,,0,
2148,,Avenida Presidente Salvador Allende / Avenida Parque Industrial,,-41.461181,-72.954643,,,0,
2149,,Avenida Parque Industrial / Panamericana Sur,,-41.459739,-72.956801,,,0,
2150,,Avenida Parque Industrial / Santa Inés,,-41.458503,-72.962258,,,0,
2151,,Terminal Cruz Del Sur,Pdte. Salvador Allende,-41.462967,-72.954079,,,0,
2152,,Terminal Línea 10,,-40.578666,-73.168153,,,0,
2153,,Avda. Brasil / Galvarino Riveros,,-41.776281,-73.128598,,,0,
2154,,Avenida Parque Industrial / Santa Inés,Linea 10v1 / 10t,-41.458868,-72.962328,,,0,
2155,,Avenida Parque Industrial / Avenida Presidente Salvador Allende,Linea 10t,-41.46006,-72.956857,,,0,
2156,,Avenida Presidente Salvador Allende / Avenida Presidente Ibañez,,-41.464539,-72.954272,,,0,
2157,,Ecuador / Vicente Pérez Rosales,,-41.4730551473998,-72.9537157202377,,,0,
2170,,Terminal Municipal De Buses Puerto Montt,Diego Portales / Eusebio Lilo,-41.477348,-72.950419,,,0,
2172,,Terminal Cruz Del Sur,Pdte. Salvador Allende,-41.462967,-72.954079,,,0,
2173,,Avenida Presidente Salvador Allende / Avenida Parque Industrial,,-41.461181,-72.954643,,,0,
2174,,Avenida Parque Industrial / Panamericana Sur,,-41.459739,-72.956801,,,0,
2175,,Avenida Parque Industrial / Santa Inés,,-41.458503,-72.962258,,,0,
2176,,Avda. Brasil / Galvarino Riveros,,-41.776281,-73.128598,,,0,
2177,,Terminal Calbuco,,-41.77155,-73.127121,,,0,
2178,,Avenida Parque Industrial / Santa Inés,Linea 10v1 / 10t,-41.458868,-72.962328,,,0,
2179,,Avenida Parque Industrial / Avenida Presidente Salvador Allende,Linea 10t,-41.46006,-72.956857,,,0,
2180,,Avenida Presidente Salvador Allende / Avenida Presidente Ibañez,,-41.464539,-72.954272,,,0,
2181,,Ecuador / Vicente Pérez Rosales,,-41.4730551473998,-72.9537157202377,,,0,
2182,,Terminal Municipal De Buses Puerto Montt,Diego Portales / Eusebio Lilo,-41.477348,-72.950419,,,0,
2184,,Terminal Cruz Del Sur,Pdte. Salvador Allende,-41.462967,-72.954079,,,0,
2185,,Avenida Presidente Salvador Allende / Avenida Parque Industrial,,-41.461181,-72.954643,,,0,
2186,,Avenida Parque Industrial / Panamericana Sur,,-41.459739,-72.956801,,,0,
2187,,Avenida Parque Industrial / Santa Inés,,-41.458503,-72.962258,,,0,
2188,,Avda. Brasil / Galvarino Riveros,,-41.776281,-73.128598,,,0,
2189,,Terminal Calbuco,,-41.77155,-73.127121,,,0,
2190,,Avenida Parque Industrial / Santa Inés,Linea 10v1 / 10t,-41.458868,-72.962328,,,0,
2191,,Avenida Parque Industrial / Avenida Presidente Salvador Allende,Linea 10t,-41.46006,-72.956857,,,0,
2192,,Avenida Presidente Salvador Allende / Avenida Presidente Ibañez,,-41.464539,-72.954272,,,0,
2193,,Ecuador / Vicente Pérez Rosales,,-41.4730551473998,-72.9537157202377,,,0,
2200,,Terminal Municipal De Buses Puerto Montt,Diego Portales / Eusebio Lilo,-41.477348,-72.950419,,,0,
2202,,Terminal Cruz Del Sur,Pdte. Salvador Allende,-41.462967,-72.954079,,,0,
2203,,Avenida Presidente Salvador Allende / Avenida Parque Industrial,,-41.461181,-72.954643,,,0,
2204,,Avenida Parque Industrial / Panamericana Sur,,-41.459739,-72.956801,,,0,
2205,,Avenida Parque Industrial / Santa Inés,,-41.458503,-72.962258,,,0,
2206,,Avda. Brasil / Galvarino Riveros,,-41.776281,-73.128598,,,0,
2207,,Terminal Calbuco,,-41.77155,-73.127121,,,0,
2208,,Avenida Parque Industrial / Santa Inés,Linea 10v1 / 10t,-41.458868,-72.962328,,,0,
2209,,Avenida Parque Industrial / Avenida Presidente Salvador Allende,Linea 10t,-41.46006,-72.956857,,,0,
2210,,Avenida Presidente Salvador Allende / Avenida Presidente Ibañez,,-41.464539,-72.954272,,,0,
2211,,Ecuador / Vicente Pérez Rosales,,-41.4730551473998,-72.9537157202377,,,0,
2212,,Terminal Municipal De Buses Puerto Montt,Diego Portales / Eusebio Lilo,-41.477348,-72.950419,,,0,
2214,,Terminal Cruz Del Sur,Pdte. Salvador Allende,-41.462967,-72.954079,,,0,
2215,,Avenida Presidente Salvador Allende / Avenida Parque Industrial,,-41.461181,-72.954643,,,0,
2216,,Avenida Parque Industrial / Panamericana Sur,,-41.459739,-72.956801,,,0,
2217,,Avenida Parque Industrial / Santa Inés,,-41.458503,-72.962258,,,0,
2218,,Avda. Brasil / Galvarino Riveros,,-41.776281,-73.128598,,,0,
2219,,Terminal Calbuco,,-41.77155,-73.127121,,,0,
2220,,Avenida Parque Industrial / Santa Inés,Linea 10v1 / 10t,-41.458868,-72.962328,,,0,
2221,,Avenida Parque Industrial / Avenida Presidente Salvador Allende,Linea 10t,-41.46006,-72.956857,,,0,
2222,,Avenida Presidente Salvador Allende / Avenida Presidente Ibañez,,-41.464539,-72.954272,,,0,
2223,,Ecuador / Vicente Pérez Rosales,,-41.4730551473998,-72.9537157202377,,,0,
2224,,Terminal Municipal De Buses Puerto Montt,Diego Portales / Eusebio Lilo,-41.477348,-72.950419,,,0,
2226,,Terminal Cruz Del Sur,Pdte. Salvador Allende,-41.462967,-72.954079,,,0,
2227,,Avenida Presidente Salvador Allende / Avenida Parque Industrial,,-41.461181,-72.954643,,,0,
2228,,Avenida Parque Industrial / Panamericana Sur,,-41.459739,-72.956801,,,0,
2229,,Avenida Parque Industrial / Santa Inés,,-41.458503,-72.962258,,,0,
2230,,Avda. Brasil / Galvarino Riveros,,-41.776281,-73.128598,,,0,
2231,,Terminal Calbuco,,-41.77155,-73.127121,,,0,
2232,,Avenida Parque Industrial / Santa Inés,Linea 10v1 / 10t,-41.458868,-72.962328,,,0,
2233,,Avenida Parque Industrial / Avenida Presidente Salvador Allende,Linea 10t,-41.46006,-72.956857,,,0,
2234,,Avenida Presidente Salvador Allende / Avenida Presidente Ibañez,,-41.464539,-72.954272,,,0,
2235,,Ecuador / Vicente Pérez Rosales,,-41.4730551473998,-72.9537157202377,,,0,
2236,,Terminal Municipal De Buses Puerto Montt,Diego Portales / Eusebio Lilo,-41.477348,-72.950419,,,0,
2238,,Terminal Cruz Del Sur,Pdte. Salvador Allende,-41.462967,-72.954079,,,0,
2239,,Avenida Presidente Salvador Allende / Avenida Parque Industrial,,-41.461181,-72.954643,,,0,
2240,,Avenida Parque Industrial / Panamericana Sur,,-41.459739,-72.956801,,,0,
2241,,Avenida Parque Industrial / Santa Inés,,-41.458503,-72.962258,,,0,
2242,,Avda. Brasil / Galvarino Riveros,,-41.776281,-73.128598,,,0,
2243,,Terminal Calbuco,,-41.77155,-73.127121,,,0,
2244,,Avenida Parque Industrial / Santa Inés,Linea 10v1 / 10t,-41.458868,-72.962328,,,0,
2245,,Avenida Parque Industrial / Avenida Presidente Salvador Allende,Linea 10t,-41.46006,-72.956857,,,0,
2246,,Avenida Presidente Salvador Allende / Avenida Presidente Ibañez,,-41.464539,-72.954272,,,0,
2247,,Ecuador / Vicente Pérez Rosales,,-41.4730551473998,-72.9537157202377,,,0,
2248,,Terminal Municipal De Buses Puerto Montt,Diego Portales / Eusebio Lilo,-41.477348,-72.950419,,,0,
2250,,Terminal Cruz Del Sur,Pdte. Salvador Allende,-41.462967,-72.954079,,,0,
2251,,Avenida Presidente Salvador Allende / Avenida Parque Industrial,,-41.461181,-72.954643,,,0,
2252,,Avenida Parque Industrial / Panamericana Sur,,-41.459739,-72.956801,,,0,
2253,,Avenida Parque Industrial / Santa Inés,,-41.458503,-72.962258,,,0,
2254,,Avda. Brasil / Galvarino Riveros,,-41.776281,-73.128598,,,0,
2255,,Terminal Calbuco,,-41.77155,-73.127121,,,0,
2256,,Avenida Parque Industrial / Santa Inés,Linea 10v1 / 10t,-41.458868,-72.962328,,,0,
2257,,Avenida Parque Industrial / Avenida Presidente Salvador Allende,Linea 10t,-41.46006,-72.956857,,,0,
2258,,Avenida Presidente Salvador Allende / Avenida Presidente Ibañez,,-41.464539,-72.954272,,,0,
2259,,Ecuador / Vicente Pérez Rosales,,-41.4730551473998,-72.9537157202377,,,0,
2260,,Terminal Municipal De Buses Puerto Montt,Diego Portales / Eusebio Lilo,-41.477348,-72.950419,,,0,
2262,,Terminal Cruz Del Sur,Pdte. Salvador Allende,-41.462967,-72.954079,,,0,
2263,,Avenida Presidente Salvador Allende / Avenida Parque Industrial,,-41.461181,-72.954643,,,0,
2264,,Avenida Parque Industrial / Panamericana Sur,,-41.459739,-72.956801,,,0,
2265,,Avenida Parque Industrial / Santa Inés,,-41.458503,-72.962258,,,0,
2266,,Avda. Brasil / Galvarino Riveros,,-41.776281,-73.128598,,,0,
2267,,Terminal Calbuco,,-41.77155,-73.127121,,,0,
2268,,Avenida Parque Industrial / Santa Inés,Linea 10v1 / 10t,-41.458868,-72.962328,,,0,
2269,,Avenida Parque Industrial / Avenida Presidente Salvador Allende,Linea 10t,-41.46006,-72.956857,,,0,
2270,,Avenida Presidente Salvador Allende / Avenida Presidente Ibañez,,-41.464539,-72.954272,,,0,
2271,,Ecuador / Vicente Pérez Rosales,,-41.4730551473998,-72.9537157202377,,,0,
2272,,Terminal Municipal De Buses Puerto Montt,Diego Portales / Eusebio Lilo,-41.477348,-72.950419,,,0,
2274,,Terminal Cruz Del Sur,Pdte. Salvador Allende,-41.462967,-72.954079,,,0,
2275,,Avenida Presidente Salvador Allende / Avenida Parque Industrial,,-41.461181,-72.954643,,,0,
2276,,Avenida Parque Industrial / Panamericana Sur,,-41.459739,-72.956801,,,0,
2277,,Avenida Parque Industrial / Santa Inés,,-41.458503,-72.962258,,,0,
2278,,Avda. Brasil / Galvarino Riveros,,-41.776281,-73.128598,,,0,
2279,,Terminal Calbuco,,-41.77155,-73.127121,,,0,
2280,,Avenida Parque Industrial / Santa Inés,Linea 10v1 / 10t,-41.458868,-72.962328,,,0,
2281,,Avenida Parque Industrial / Avenida Presidente Salvador Allende,Linea 10t,-41.46006,-72.956857,,,0,
2282,,Avenida Presidente Salvador Allende / Avenida Presidente Ibañez,,-41.464539,-72.954272,,,0,
2283,,Ecuador / Vicente Pérez Rosales,,-41.4730551473998,-72.9537157202377,,,0,
2284,,Terminal Municipal De Buses Puerto Montt,Diego Portales / Eusebio Lilo,-41.477348,-72.950419,,,0,
2286,,Terminal Cruz Del Sur,Pdte. Salvador Allende,-41.462967,-72.954079,,,0,
2287,,Avenida Presidente Salvador Allende / Avenida Parque Industrial,,-41.461181,-72.954643,,,0,
2288,,Avenida Parque Industrial / Panamericana Sur,,-41.459739,-72.956801,,,0,
2289,,Avenida Parque Industrial / Santa Inés,,-41.458503,-72.962258,,,0,
2290,,Avda. Brasil / Galvarino Riveros,,-41.776281,-73.128598,,,0,
2291,,Terminal Calbuco,,-41.77155,-73.127121,,,0,
2292,,Avenida Parque Industrial / Santa Inés,Linea 10v1 / 10t,-41.458868,-72.962328,,,0,
2293,,Avenida Parque Industrial / Avenida Presidente Salvador Allende,Linea 10t,-41.46006,-72.956857,,,0,
2294,,Avenida Presidente Salvador Allende / Avenida Presidente Ibañez,,-41.464539,-72.954272,,,0,
2295,,Ecuador / Vicente Pérez Rosales,,-41.4730551473998,-72.9537157202377,,,0,
2296,,Terminal Municipal De Buses Puerto Montt,Diego Portales / Eusebio Lilo,-41.477348,-72.950419,,,0,
2298,,Terminal Cruz Del Sur,Pdte. Salvador Allende,-41.462967,-72.954079,,,0,
2299,,Avenida Presidente Salvador Allende / Avenida Parque Industrial,,-41.461181,-72.954643,,,0,
2300,,Avenida Parque Industrial / Panamericana Sur,,-41.459739,-72.956801,,,0,
2301,,Avenida Parque Industrial / Santa Inés,,-41.458503,-72.962258,,,0,
2302,,Avda. Brasil / Galvarino Riveros,,-41.776281,-73.128598,,,0,
2303,,Terminal Calbuco,,-41.77155,-73.127121,,,0,
2304,,Avenida Parque Industrial / Santa Inés,Linea 10v1 / 10t,-41.458868,-72.962328,,,0,
2305,,Avenida Parque Industrial / Avenida Presidente Salvador Allende,Linea 10t,-41.46006,-72.956857,,,0,
2306,,Avenida Presidente Salvador Allende / Avenida Presidente Ibañez,,-41.464539,-72.954272,,,0,
2307,,Ecuador / Vicente Pérez Rosales,,-41.4730551473998,-72.9537157202377,,,0,
2308,,Avenida Parque Industrial / Panamericana Sur,,-41.459739,-72.956801,,,0,
2309,,Avenida Parque Industrial / Santa Inés,,-41.458503,-72.962258,,,0,
2310,,Avda. Brasil / Galvarino Riveros,,-41.776281,-73.128598,,,0,
2311,,Terminal Calbuco,,-41.77155,-73.127121,,,0,
2312,,Avenida Parque Industrial / Santa Inés,Linea 10v1 / 10t,-41.458868,-72.962328,,,0,
2313,,Avenida Parque Industrial / Avenida Presidente Salvador Allende,Linea 10t,-41.46006,-72.956857,,,0,
2314,,Avenida Presidente Salvador Allende / Avenida Presidente Ibañez,,-41.464539,-72.954272,,,0,
2315,,Ecuador / Vicente Pérez Rosales,,-41.4730551473998,-72.9537157202377,,,0,
2324,,Isla Laitec Posta,,-43.196071,-73.608775,,,0,
2325,,Rampa Quellón,,-43.122354,-73.623957,,,0,
2326,,Isla Cailín Yelcho,,-43.183571,-73.567672,,,0,
2327,,Isla Cailín Pelu,,-43.145477,-73.587242,,,0,
2328,,Rampa Queilen,,-42.884663,-73.479472,,,0,
2329,,Isla Tranqui,,-42.91636,-73.521266,,,0,
2330,,San José Isla Tranqui,,-42.926269,-73.583508,,,0,
2331,,Isla Acui,,-42.925967,-73.435253,,,0,
2332,,Chulchuy,,-42.638282,-73.721456,,,0,
2333,,Huicha,,-42.650044,-73.735133,,,0,
2334,,Terminal Municipal De Buses Puerto Montt,Diego Portales / Eusebio Lilo,-41.477348,-72.950419,,,0,
2336,,Terminal Cruz Del Sur,Pdte. Salvador Allende,-41.462967,-72.954079,,,0,
2337,,Avenida Presidente Salvador Allende / Avenida Parque Industrial,,-41.461181,-72.954643,,,0,
2338,,Avenida Parque Industrial / Panamericana Sur,,-41.459739,-72.956801,,,0,
2339,,Avenida Parque Industrial / Santa Inés,,-41.458503,-72.962258,,,0,
2340,,Maullín,,-41.61587,-73.594258,,,0,
2341,,Avenida Parque Industrial / Santa Inés,Linea 10v1 / 10t,-41.458868,-72.962328,,,0,
2342,,Avenida Parque Industrial / Avenida Presidente Salvador Allende,Linea 10t,-41.46006,-72.956857,,,0,
2343,,Avenida Presidente Salvador Allende / Avenida Presidente Ibañez,,-41.464539,-72.954272,,,0,
2344,,Terminal Municipal De Buses Puerto Montt,Diego Portales / Eusebio Lilo,-41.477348,-72.950419,,,0,
2346,,Terminal Cruz Del Sur,Pdte. Salvador Allende,-41.462967,-72.954079,,,0,
2347,,Avenida Presidente Salvador Allende / Avenida Parque Industrial,,-41.461181,-72.954643,,,0,
2348,,Avenida Parque Industrial / Panamericana Sur,,-41.459739,-72.956801,,,0,
2349,,Avenida Parque Industrial / Santa Inés,,-41.458503,-72.962258,,,0,
2350,,Maullín,,-41.61587,-73.594258,,,0,
2351,,Avenida Parque Industrial / Santa Inés,Linea 10v1 / 10t,-41.458868,-72.962328,,,0,
2352,,Avenida Parque Industrial / Avenida Presidente Salvador Allende,Linea 10t,-41.46006,-72.956857,,,0,
2353,,Avenida Presidente Salvador Allende / Avenida Presidente Ibañez,,-41.464539,-72.954272,,,0,
2354,,Terminal Municipal De Buses Puerto Montt,Diego Portales / Eusebio Lilo,-41.477348,-72.950419,,,0,
2356,,Terminal Cruz Del Sur,Pdte. Salvador Allende,-41.462967,-72.954079,,,0,
2357,,Avenida Presidente Salvador Allende / Avenida Parque Industrial,,-41.461181,-72.954643,,,0,
2358,,Avenida Parque Industrial / Panamericana Sur,,-41.459739,-72.956801,,,0,
2359,,Avenida Parque Industrial / Santa Inés,,-41.458503,-72.962258,,,0,
2360,,Maullín,,-41.61587,-73.594258,,,0,
2361,,Avenida Parque Industrial / Santa Inés,Linea 10v1 / 10t,-41.458868,-72.962328,,,0,
2362,,Avenida Parque Industrial / Avenida Presidente Salvador Allende,Linea 10t,-41.46006,-72.956857,,,0,
2363,,Avenida Presidente Salvador Allende / Avenida Presidente Ibañez,,-41.464539,-72.954272,,,0,
2364,,Terminal Municipal De Buses Puerto Montt,Diego Portales / Eusebio Lilo,-41.477348,-72.950419,,,0,
2366,,Terminal Cruz Del Sur,Pdte. Salvador Allende,-41.462967,-72.954079,,,0,
2367,,Avenida Presidente Salvador Allende / Avenida Parque Industrial,,-41.461181,-72.954643,,,0,
2368,,Panamericana Sur / Pasaje Tres,,-41.458334,-72.95436,,,0,
2369,,Panamericana Norte / Canal Beagle,,-41.455911,-72.954519,,,0,
2370,,Del Salvador / Santa Rosa,,-41.318095,-72.984071,,,0,
2371,,Vicente Pérez Rosales,Fabrica Cecinas Llanquihue,-41.2685,-73.001348,,,0,
2372,,Vicente Pérez Rosales / Regidor Gerado Werner,,-41.2568,-73.005461,,,0,
2373,,Fresia,,-41.153163,-73.423136,,,0,
2374,,Vicente Pérez Rosales / Llanquihue,,-41.258159,-73.005493,,,0,
2375,,Panamericana Norte / Pasaje Tres,,-41.458122,-72.954739,,,0,
2376,,Avenida Presidente Salvador Allende / Avenida Presidente Ibañez,,-41.464539,-72.954272,,,0,
2377,,Ecuador / Vicente Pérez Rosales,,-41.4730551473998,-72.9537157202377,,,0,
2378,,Terminal Municipal De Buses Puerto Montt,Diego Portales / Eusebio Lilo,-41.477348,-72.950419,,,0,
2380,,Terminal Cruz Del Sur,Pdte. Salvador Allende,-41.462967,-72.954079,,,0,
2381,,Avenida Presidente Salvador Allende / Avenida Parque Industrial,,-41.461181,-72.954643,,,0,
2382,,Panamericana Sur / Pasaje Tres,,-41.458334,-72.95436,,,0,
2383,,Panamericana Norte / Canal Beagle,,-41.455911,-72.954519,,,0,
2384,,Del Salvador / Santa Rosa,,-41.318095,-72.984071,,,0,
2385,,Vicente Pérez Rosales,Fabrica Cecinas Llanquihue,-41.2685,-73.001348,,,0,
2386,,Vicente Pérez Rosales / Regidor Gerado Werner,,-41.2568,-73.005461,,,0,
2387,,Fresia,,-41.153163,-73.423136,,,0,
2388,,Vicente Pérez Rosales / Llanquihue,,-41.258159,-73.005493,,,0,
2389,,Panamericana Norte / Pasaje Tres,,-41.458122,-72.954739,,,0,
2390,,Avenida Presidente Salvador Allende / Avenida Presidente Ibañez,,-41.464539,-72.954272,,,0,
2391,,Ecuador / Vicente Pérez Rosales,,-41.4730551473998,-72.9537157202377,,,0,
2392,,Terminal Municipal De Buses Puerto Montt,Diego Portales / Eusebio Lilo,-41.477348,-72.950419,,,0,
2394,,Terminal Cruz Del Sur,Pdte. Salvador Allende,-41.462967,-72.954079,,,0,
2395,,Avenida Presidente Salvador Allende / Avenida Parque Industrial,,-41.461181,-72.954643,,,0,
2396,,Panamericana Sur / Pasaje Tres,,-41.458334,-72.95436,,,0,
2397,,Panamericana Norte / Canal Beagle,,-41.455911,-72.954519,,,0,
2398,,Del Salvador / Santa Rosa,,-41.318095,-72.984071,,,0,
2399,,Vicente Pérez Rosales,Fabrica Cecinas Llanquihue,-41.2685,-73.001348,,,0,
2400,,Vicente Pérez Rosales / Regidor Gerado Werner,,-41.2568,-73.005461,,,0,
2401,,Fresia,,-41.153163,-73.423136,,,0,
2402,,Vicente Pérez Rosales / Llanquihue,,-41.258159,-73.005493,,,0,
2403,,Panamericana Norte / Pasaje Tres,,-41.458122,-72.954739,,,0,
2404,,Avenida Presidente Salvador Allende / Avenida Presidente Ibañez,,-41.464539,-72.954272,,,0,
2405,,Ecuador / Vicente Pérez Rosales,,-41.4730551473998,-72.9537157202377,,,0,
2406,,Terminal Municipal De Buses Puerto Montt,Diego Portales / Eusebio Lilo,-41.477348,-72.950419,66,,0,
2408,,Terminal Cruz Del Sur,Pdte. Salvador Allende,-41.462967,-72.954079,,,0,
2409,,Avenida Presidente Salvador Allende / Avenida Parque Industrial,,-41.461181,-72.954643,,,0,
2410,,Panamericana Sur / Pasaje Tres,,-41.458334,-72.95436,,,0,
2411,,Panamericana Norte / Canal Beagle,,-41.455911,-72.954519,,,0,
2412,,Del Salvador / Santa Rosa,,-41.318095,-72.984071,64,,0,
2413,,Vicente Pérez Rosales,Fabrica Cecinas Llanquihue,-41.2685,-73.001348,,,0,
2414,,Vicente Pérez Rosales / Regidor Gerado Werner,,-41.2568,-73.005461,,,0,
2415,,Fresia,,-41.153163,-73.423136,,,0,
2416,,Vicente Pérez Rosales / Llanquihue,,-41.258159,-73.005493,65,,0,
2417,,Panamericana Norte / Pasaje Tres,,-41.458122,-72.954739,,,0,
2418,,Avenida Presidente Salvador Allende / Avenida Presidente Ibañez,,-41.464539,-72.954272,,,0,
2419,,Ecuador / Vicente Pérez Rosales,,-41.4730551473998,-72.9537157202377,,,0,
2420,,Fresia,,-41.153163,-73.423136,,,0,
2421,,Panamericana Norte / Pasaje Tres,,-41.458122,-72.954739,,,0,
2422,,Rampa Maullín,,-41.61539,-73.594586,,,0,
2423,,Rampa La Pasada,,-41.60556,-73.598176,,,0,
2424,,Rampa Quenuir,,-41.564902,-73.675917,,,0,
2425,,Rampa Maullín,,-41.61539,-73.594586,,,0,
2426,,Isla Puluqui,,-41.773482,-73.07084,,,0,
2427,,Rampa Calbuco,,-41.766624,-73.130247,,,0,
2430,,Quemchi,,-42.143482,-73.471175,,,0,
2431,,Terminal Municipal De Castro,Sgto. Aldea / Gómez,-42.478556,-73.76294,,,0,
2432,,Quemchi,,-42.143482,-73.471175,,,0,
2433,,Terminal Municipal De Castro,Sgto. Aldea / Gómez,-42.478556,-73.76294,,,0,
2434,,Quemchi,,-42.143482,-73.471175,,,0,
2435,,Terminal Municipal De Castro,Sgto. Aldea / Gómez,-42.478556,-73.76294,,,0,
2436,,Quemchi,,-42.143482,-73.471175,,,0,
2437,,Terminal Municipal De Castro,Sgto. Aldea / Gómez,-42.478556,-73.76294,,,0,
2438,,Quemchi,,-42.143482,-73.471175,,,0,
2439,,Terminal Municipal De Castro,Sgto. Aldea / Gómez,-42.478556,-73.76294,,,0,
2441,,Avenida Presidente Salvador Allende / Antonio Varas,,-41.47531,-72.950822,,,0,
2442,,Avenida Presidente Salvador Allende / Rengifo,,-41.471892,-72.95304,,,0,
2443,,Avenida Presidente Salvador Allende / Antonio Varas,,-41.47531,-72.950822,,,0,
2450,,Avenida Presidente Salvador Allende / Antonio Varas,,-41.47531,-72.950822,,,0,
2451,,Avenida Presidente Salvador Allende / Rengifo,,-41.471892,-72.95304,,,0,
2452,,Avenida Presidente Salvador Allende / Antonio Varas,,-41.47531,-72.950822,,,0,
2453,,Avenida Presidente Salvador Allende / Rengifo,,-41.471892,-72.95304,,,0,
2454,,Avenida Presidente Salvador Allende / Antonio Varas,,-41.47531,-72.950822,,,0,
2455,,Avenida Presidente Salvador Allende / Rengifo,,-41.471892,-72.95304,,,0,
2456,,Avenida Presidente Salvador Allende / Antonio Varas,,-41.47531,-72.950822,,,0,
2457,,Avenida Presidente Salvador Allende / Rengifo,,-41.471892,-72.95304,,,0,
2458,,Avenida Presidente Salvador Allende / Antonio Varas,,-41.47531,-72.950822,,,0,
2459,,Avenida Presidente Salvador Allende / Rengifo,,-41.471892,-72.95304,,,0,
2460,,Avenida Presidente Salvador Allende / Antonio Varas,,-41.47531,-72.950822,,,0,
2461,,Avenida Presidente Salvador Allende / Rengifo,,-41.471892,-72.95304,,,0,
2462,,Avenida Presidente Salvador Allende / Antonio Varas,,-41.47531,-72.950822,,,0,
2463,,Avenida Presidente Salvador Allende / Rengifo,,-41.471892,-72.95304,,,0,
2464,,Avenida Presidente Salvador Allende / Antonio Varas,,-41.47531,-72.950822,,,0,
2465,,Avenida Presidente Salvador Allende / Rengifo,,-41.471892,-72.95304,,,0,
2466,,Avenida Presidente Salvador Allende / Antonio Varas,,-41.47531,-72.950822,,,0,
2467,,Avenida Presidente Salvador Allende / Rengifo,,-41.471892,-72.95304,,,0,
2468,,Avenida Presidente Salvador Allende / Antonio Varas,,-41.47531,-72.950822,,,0,
2469,,Avenida Presidente Salvador Allende / Rengifo,,-41.471892,-72.95304,,,0,
2470,,Avenida Presidente Salvador Allende / Antonio Varas,,-41.47531,-72.950822,,,0,
2471,,Avenida Presidente Salvador Allende / Rengifo,,-41.471892,-72.95304,,,0,
2472,,Avenida Presidente Salvador Allende / Antonio Varas,,-41.47531,-72.950822,,,0,
2473,,Avenida Presidente Salvador Allende / Rengifo,,-41.471892,-72.95304,,,0,
2474,,Avenida Presidente Salvador Allende / Antonio Varas,,-41.47531,-72.950822,,,0,
2475,,Avenida Presidente Salvador Allende / Rengifo,,-41.471892,-72.95304,,,0,
2476,,Avenida Presidente Salvador Allende / Antonio Varas,,-41.47531,-72.950822,,,0,
2477,,Avenida Presidente Salvador Allende / Rengifo,,-41.471892,-72.95304,,,0,
2478,,Avenida Presidente Salvador Allende / Antonio Varas,,-41.47531,-72.950822,,,0,
2479,,Avenida Presidente Salvador Allende / Rengifo,,-41.471892,-72.95304,,,0,
2480,,Avenida Presidente Salvador Allende / Antonio Varas,,-41.47531,-72.950822,,,0,
2481,,Avenida Presidente Salvador Allende / Rengifo,,-41.471892,-72.95304,,,0,
2482,,Avenida Presidente Salvador Allende / Antonio Varas,,-41.47531,-72.950822,,,0,
2483,,Avenida Presidente Salvador Allende / Rengifo,,-41.471892,-72.95304,,,0,
2484,,Avenida Presidente Salvador Allende / Antonio Varas,,-41.47531,-72.950822,,,0,
2485,,Avenida Presidente Salvador Allende / Rengifo,,-41.471892,-72.95304,,,0,
2486,,Terminal Cruz Del Sur,Pdte. Salvador Allende,-41.462967,-72.954079,,,0,
2487,,Panamericana Norte / Pasaje Tres,,-41.458122,-72.954739,,,0,
2488,,Avenida Presidente Salvador Allende / Avenida Presidente Ibañez,,-41.464539,-72.954272,,,0,
2489,,Ecuador / Vicente Pérez Rosales,,-41.4730551473998,-72.9537157202377,,,0,
2490,,Avenida Presidente Salvador Allende / Avenida Presidente Ibañez,,-41.464539,-72.954272,,,0,
2491,,Ecuador / Vicente Pérez Rosales,,-41.4730551473998,-72.9537157202377,,,0,
2492,,Avenida Presidente Salvador Allende / Antonio Varas,,-41.47531,-72.950822,,,0,
2493,,Avenida Presidente Salvador Allende / Rengifo,,-41.471892,-72.95304,,,0,
2494,,Terminal Cruz Del Sur,Pdte. Salvador Allende,-41.462967,-72.954079,,,0,
2495,,Avenida Presidente Salvador Allende / Antonio Varas,,-41.47531,-72.950822,,,0,
2496,,Avenida Presidente Salvador Allende / Rengifo,,-41.471892,-72.95304,,,0,
2497,,Avenida Presidente Salvador Allende / Antonio Varas,,-41.47531,-72.950822,,,0,
2498,,Avenida Presidente Salvador Allende / Rengifo,,-41.471892,-72.95304,,,0,
2499,,Ecuador / Vicente Pérez Rosales,,-41.4730551473998,-72.9537157202377,,,0,
2500,,Avenida Presidente Salvador Allende / Antonio Varas,,-41.47531,-72.950822,,,0,
2501,,Avenida Presidente Salvador Allende / Rengifo,,-41.471892,-72.95304,,,0,
2644,,Terminal De Buses Línea 20,,-40.604223,-73.096079,,,0,
2645,,César Ercilla / Julio Buschman,,-40.576721,-73.111518,,,0,
2646,,Julio Buschman / Pedro Aguirre Cerda,,-40.576102,-73.114047,,,0,
2647,,Patricio Lynch / Manuel Montt,,-40.575262,-73.117381,,,0,
2648,,Patricio Lynch / José Manuel Balmaceda,,-40.574865,-73.118831,,,0,
2649,,Patricio Lynch / Andrés Bello,,-40.574494,-73.120792,,,0,
2650,,Patricio Lynch / Angúlo,,-40.574355,-73.12389,,,0,
2651,,Cristóbal Colón / Patricio Lynch,,-40.573799,-73.127625,,,0,
2652,,Los Carrera / Ramón Freire,,-40.572008,-73.13096,,,0,
2653,,Los Carrera / Manuel Antonio Matta,,-40.571839,-73.134376,,,0,
2654,,Los Carrera / Manuel Bulnes,,-40.571679,-73.137948,,,0,
2655,,Portales / Los Carrera,,-40.572127,-73.140436,,,0,
2656,,Portales / Eleuterio Ramírez,,-40.5732,-73.140373,,,0,
2657,,República / Por La Razón O La Fuerza,,-40.57414,-73.148156,,,0,
2658,,República / Antofagasta,,-40.573969,-73.150652,,,0,
2659,,República / Talca,,-40.573883,-73.151848,,,0,
2660,,República / Chillán,,-40.573814,-73.154669,,,0,
2661,,Pedro Montt / Sofanora Vidal,,-40.57035,-73.158266,,,0,
2662,,Uno De Mayo / Caupolicán,,-40.568871,-73.160191,,,0,
2663,,Terminal De Buses Línea 1,,-40.559433,-73.16884,,,0,
2664,,Bahía Pargua / Bahía Queule,,-40.554046,-73.170791,,,0,
2665,,Bahía Pargua / Pasaje Quillaipe,,-40.554997,-73.171622,,,0,
2666,,La Misión / Bahía Mansa,,-40.556492,-73.171245,,,0,
2667,,Bahía Mansa / Cantiamo Norte,,-40.55877,-73.175877,,,0,
2668,,Bahía Mansa / Panguimapu,,-40.558852,-73.17681,,,0,
2669,,Nueva Imperial / Aleucapi,,-40.56023,-73.18041,,,0,
2670,,Huamputue / Pasaje La Aguada,,-40.561654,-73.17984,,,0,
2671,,Camino U - 40 / Rosario,,-40.567683,-73.173291,,,0,
2672,,Bellavista / Chorrillos,,-40.569383,-73.169705,,,0,
2673,,Chacarillas / Las Nieves,,-40.577465,-73.178113,,,0,
2674,,Del Pacífico / Bahía Escocia,,-40.579788,-73.176277,,,0,
2675,,Bahía Escocia / Quilanto,,-40.58024,-73.1757,,,0,
2676,,Acapulco / Venecia,,-40.582877,-73.176596,,,0,
2677,,Acapulco / Pasaje Mar Del Plata,,-40.58349,-73.177071,,,0,
2678,,Walterio Mayer / San Agustín,,-40.589597,-73.175399,,,0,
2679,,Walterio Mayer / Ancud,,-40.588444,-73.173786,,,0,
2680,,Bolivia / El Salvador,,-40.583311,-73.170569,,,0,
2681,,Panamá / Bolivia,,-40.581164,-73.169874,,,0,
2682,,Panamá / Manizales,,-40.580858,-73.167501,,,0,
2683,,Perú / Nicaragua,,-40.582546,-73.165575,,,0,
2684,,Guillermo Schwencke / Víctor Villalón,,-40.584659,-73.160634,,,0,
2685,,Chillán / Miraflores,,-40.582616,-73.155739,,,0,
2686,,Chillán / Llanquihue,,-40.580958,-73.155286,,,0,
2687,,Chillán / Temuco,,-40.578794,-73.154983,,,0,
2689,,Francisco Bilbao / Manuel Antonio Matta,,-40.575911,-73.135051,,,0,
2690,,Francisco Bilbao / Ramón Freire,,-40.576047,-73.132064,,,0,
2691,,Cristóbal Colón / Juan Mackenna,,-40.575517,-73.12791,,,0,
2692,,Errázuriz / Cristóbal Colón,,-40.573325,-73.126551,,,0,
2693,,Errázuriz / Angúlo,,-40.573682,-73.1239,,,0,
2694,,Errázuriz / José Victorino Lastarria,,-40.57378,-73.121415,,,0,
2695,,Errázuriz / José Manuel Balmaceda,,-40.573888,-73.118667,,,0,
2696,,Luis Emilio Recabarren / Pedro Aguirre Cerda,,-40.574596,-73.113164,,,0,
2697,,César Ercilla / Luis Emilio Recabarren,,-40.575497,-73.111445,,,0,
2698,,Julio Buschman / Dieciocho De Septiembre,,-40.577089,-73.108177,,,0,
2699,,Julio Buschman / José Vidal,,-40.578451,-73.104811,,,0,
2700,,Avenida Alcalde Alberto Fuschlocher / Guillermo Hollstein,,-40.580376,-73.100834,,,0,
2701,,Avenida Alcalde Alberto Fuschlocher / Con Con,,-40.582945,-73.094832,,,0,
2702,,Universidad De Los Lagos,,-40.586072,-73.089476,,,0,
2703,,Avenida Alcalde Alberto Fuschlocher / Con Con,,-40.5834606294872,-73.0931303730163,,,0,
2704,,Avenida Alcalde Alberto Fuschlocher / Eleodoro Vásquez,,-40.580161,-73.100617,,,0,
2705,,Julio Buschman / Dieciocho De Septiembre,,-40.577413,-73.106752,,,0,
2706,,Inés De Suárez / Manuel Rodríguez,,-40.577578,-73.138497,,,0,
2707,,Inés De Suárez / Sargento Hott,,-40.580034,-73.142709,,,0,
2708,,Concepción / Iquique,,-40.578073,-73.149363,,,0,
2709,,Chacarillas / Pasaje Puerto Huillín,,-40.579353,-73.177557,,,0,
2710,,Azapa / Chacarillas,,-40.576721,-73.178078,,,0,
2711,,Azapa / Illapel,,-40.576237,-73.174579,,,0,
2712,,Azapa / Nueva Poniente,,-40.576027,-73.17311,,,0,
2713,,Nueva Poniente / Recoleta,,-40.572071,-73.173718,,,0,
2714,,Nueva Imperial / Pasaje El Cardal,,-40.559525,-73.1799,,,0,
2715,,Bahía Mansa / Quemeumo,,-40.558807,-73.175195,,,0,
2716,,La Misión / Chauracahuin,,-40.559833,-73.166954,,,0,
2717,,Chacarillas / Chauracahuin,,-40.561507,-73.172392,,,0,
2718,,Doce De Octubre / Sevilla,,-40.566405,-73.16862,,,0,
2719,,Doce De Octubre / Madrid,,-40.566464,-73.167757,,,0,
2720,,Doce De Octubre / La Misión,,-40.566346,-73.165954,,,0,
2721,,Caupolicán / Uno De Mayo,,-40.569221,-73.160611,,,0,
2722,,Juan Estéban Montero / Victoria,,-40.571865,-73.157891,,,0,
2723,,Victoria / República,,-40.573203,-73.157713,,,0,
2724,,República / Chillán,,-40.573989,-73.154627,,,0,
2725,,República / Iquique,,-40.574242,-73.149158,,,0,
2726,,República / Por La Razón O La Fuerza,,-40.574351,-73.147617,,,0,
2727,,Francisco Bilbao / Manuel Bulnes,,-40.575743,-73.138603,,,0,
2728,,Zenteno / Barros Araña,,-40.58163,-73.123427,,,0,
2729,,Le Mans / Eduardo Meyer E,,-40.597027,-73.104967,,,0,
2730,,Francia / Luisa Schöner,,-40.58933,-73.102927,,,0,
