stop_id,stop_code,stop_name,stop_desc,stop_lat,stop_lon,zone_id,stop_url,location_type,parent_station,wheelchair_boarding,
32488,,Punta Corralillo - Caleta Plata,,-36.7203208850751,-73.1471982211224,,,0,,
32489,,Punta Corralillo - Caleta Chipana,,-36.7184783462538,-73.146777114307,,,0,,
32490,,Punta Corralillo - Punta Lavapie,,-36.7169711726033,-73.1452294797054,,,0,,
32491,,Bahia Dichato - Playa El Huevillo,,-36.7167497166226,-73.1403693169705,,,0,,
32492,,Bahia Dichato - Caleta El Sold,,-36.7149135421821,-73.1393527597538,,,0,,
32493,,Bahia Dichato - Playa Chivilongo,,-36.7131805321804,-73.1384756774059,,,0,,
32494,,San Vicente - Playa El Parron / Sur,,-36.7127074952922,-73.1354260064109,,,0,,
32495,,San Vicente 882,,-36.7124552023585,-73.1324279076944,,,0,,
32496,,San Vicente - Camino San Francisco / Oriente,,-36.7116732544968,-73.1310030430905,,,0,,
32497,,Camino Nueva Los Lobos - Calle Uno / Oriente,,-36.7093940052628,-73.1294580906979,,,0,,
32498,,Camino Nuevo Los Lobos - Camino A Tumbes,,-36.710411074831,-73.1256547183148,,,0,,
32499,,Camino A Tumbes - Los Araucanos,,-36.7141007956002,-73.1262662606605,,,0,,
32500,,Los Araucanos - Violeta Parra / Norte,,-36.7146275769427,-73.1296619372733,,,0,,
32501,,Los Araucanos - Quentrahue / Poniente,,-36.7156166260326,-73.1317433327786,,,0,,
32502,,Los Araucanos - Runcamanque / Oriente,,-36.7181988441793,-73.1326767402061,,,,,
32503,,Los Araucanos - Rucamanque / Poniente,,-36.7180403104407,-73.1327532041178,,,0,,
32504,,Los Araucanos - Los Diaguitas,,-36.7207035773486,-73.1326499187708,,,0,,
32505,,Los Araucanos 1351 / Norte,,-36.7218838911039,-73.133779128766,,,0,,
32506,,Los Araucanos - Porvenir,,-36.7228706966171,-73.1356620394945,,,0,,
32507,,Los Araucanos - Los Yaganes / Poniente,,-36.7244637485977,-73.1369146311044,,,0,,
32508,,Almirante Latorre - La Marina,,-36.7236296042434,-73.1309654915094,,,0,,
32509,,Pedro Montt - La Marina / Sur,,-36.7245432929618,-73.1299167477846,,,0,,
32510,,Pedro Montt - Lautaro,,-36.7226320584742,-73.1269582715686,,,0,,
32511,,Brasil - Pedro Montt,,-36.7221784292314,-73.1258344259913,,,0,,
32512,,Municipalidad De Talcahuano,,-36.7235350097045,-73.1230315175708,,,0,,
32513,,Brasil - Talcahuano,,-36.7248501519977,-73.1202744656912,,,0,,
32514,,Valdivia - Miranda,,-36.7239348849774,-73.1176054087337,,,0,,
32515,,Valdivia - Riquelme / Oriente,,-36.7215098045546,-73.1182840079418,,,0,,
32516,,Valdivia - Freire Bajo,,-36.7174484833231,-73.1184985843356,,,0,,
32517,,Valdivia - Castellon,,-36.7152053892235,-73.1175761634222,,,0,,
32518,,Valdivia - Sgto Aldea,,-36.7142163348394,-73.1163101610946,,,0,,
32519,,Valdivia - Anibal Pinto,,-36.7131375289473,-73.1154596416854,,,0,,
32520,,Colon 135,,-36.7124107717168,-73.1147864073864,,,0,,
32521,,Colon 367,,-36.7135675591454,-73.113270959293,,,0,,
32522,,Colon - Covadonga,,-36.7146469269754,-73.1116106719128,,,0,,
32523,,Colon - Angamos,,-36.7174936341835,-73.1098806464433,,,0,,
32524,,Colon - Veintiuno De Mayo,,-36.7206584281124,-73.1102534734964,,,0,,
32525,,Colon - Orella,,-36.722593360524,-73.110001345849,,,0,,
32526,,Colon - Manuel Rodriguez,,-36.7244545812471,-73.1100445198535,,,0,,
32527,,Colon - O´Higgins,,-36.7262303330369,-73.1104361230246,,,0,,
32528,,Colon - Chabuco,,-36.728242515537,-73.1106882500171,,,0,,
32529,,Colon - Hualpen,,-36.7323317791119,-73.1084537115748,,,0,,
32530,,Colon - Lircay Sur,,-36.7351756803416,-73.1052779761012,,,0,,
32531,,Colon - Bernardita,,-36.7371553860256,-73.1027942507171,,,0,,
32532,,Colon - Zenteno,,-36.7393693285829,-73.1002273766899,,,0,,
32533,,Colon - Ercilla,,-36.7419034625336,-73.0984544366947,,,0,,
32534,,Colon - Desiderio Garcia,,-36.7442935097323,-73.0971616119496,,,0,,
32535,,Colon 3646,,-36.7477881757417,-73.0945598692051,,,0,,
32536,,Colon - Simon Bolivar,,-36.7507067237014,-73.0932482688331,,,0,,
32537,,Colon - Juan Guillermo Sosa / Poniente,,-36.7538287488388,-73.0923419410101,,,0,,
32538,,Colon - Los Condores,,-36.7567089542633,-73.0913975444491,,,0,,
32539,,Colon - Petunias / Poniente,,-36.7589717570977,-73.0901127666584,,,0,,
32540,,Colon - La Camelia / Poniente,,-36.7608772213458,-73.0890320957405,,,0,,
32541,,Colon - Diecisiete Nte / Poniente,,-36.7694468262348,-73.0860706772637,,,0,,
32542,,Colon - Los Pinos / Poniente,,-36.7719348477336,-73.0858990160505,,,0,,
32543,,Colon - Talcahuano / Poniente,,-36.7739995434762,-73.086124321444,,,0,,
32544,,Colon - Seis Nte,,-36.7757612586238,-73.0863201227839,,,0,,
32545,,Colon - Concepcion / Poniente,,-36.7784295354404,-73.0866527166813,,,0,,
32546,,Colon - Banco Estado,,-36.780322194005,-73.0868726578819,,,0,,
32547,,Colon - Aga / Poniente,,-36.7813726960124,-73.0869692174883,,,0,,
32548,,Cristobal Colon - Club Hipico,,-36.7844145592593,-73.0870067684555,,,0,,
32549,,Crsitobal Colon - Campanario,,-36.7875916306596,-73.0870040862465,,,0,,
32550,,Cristobal Colon - Curanilahue / Poniente,,-36.7897761936992,-73.0869638529475,,,0,,
32551,,Curanihue - Chaiten,,-36.7899974389831,-73.0877497403526,,,0,,
32552,,Curanilahue - Pto Octay,,-36.7902788276931,-73.0913304895512,,,0,,
32553,,Curanilahue - Corral / Norte,,-36.7909339650797,-73.0931758493534,,,0,,
32554,,La Reconquista - Ancahual,,-36.7924111955419,-73.094514530967,,,0,,
32555,,La Reconquista - Toscania / Norte,,-36.7934728387815,-73.0959143847576,,,0,,
32556,,La Reconquista - Pista,,-36.7946906956864,-73.0976819604984,,,0,,
32569,,Quinchamali / Poniente,,-36.8003930989217,-73.0991679039653,,,0,,
32571,,Av Rulcahue - Calle Dos,,-36.801625014955,-73.0983297342755,,,0,,
32576,,Calle Uno - Av Rulcahue,,-36.8024260976966,-73.0974151010014,,,0,,
32577,,Calle Uno - Pje Doce,,-36.8036403795083,-73.0983873811419,,,0,,
32578,,Oceano Pacifico - Guarilihue,,-36.80434694547,-73.1008281913455,,,0,,
32579,,Oceano Pacifico - Mar Mediterraneo,,-36.8035501791291,-73.1022765843773,,,0,,
32580,,Oceano Pacifico - Mar Rojo,,-36.8019909843539,-73.104693254536,,,0,,
32581,,Gran Bretaña - Av La Reconquista / Oriente,,-36.8007775384083,-73.105806371359,,,0,,
32582,,Gran Bretaña - Atenas / Oriente,,-36.7998733494316,-73.1060853210147,,,0,,
32583,,Gran Bretaña - Frankfort,,-36.798032720078,-73.1066324916537,,,0,,
32584,,Av. Dos - Calle Uno,,-36.7977255867338,-73.1092637386973,,,0,,
32585,,Av. Dos - Pje Doce / Norte,,-36.7975172505933,-73.1118413412332,,,0,,
32586,,Calle 9 / Oriente,,-36.7959595133645,-73.114293139588,,,0,,
32587,,Calle Seis - Calle 9,,-36.7940506254346,-73.1147247159242,,,0,,
32588,,Calle Seis,,-36.7932344207112,-73.1141051262966,,,0,,
32589,,Postdam - Calle Tres / Norte,,-36.792190525155,-73.1140675747156,,,0,,
32590,,Monaco - Sarajevo / Oriente,,-36.7912196465625,-73.1138664096943,,,0,,
32591,,Monaco - Polesia / Oriente,,-36.7898894710203,-73.1126784491062,,,0,,
32592,,Gibraltar - Seis Nte,,-36.7885260384402,-73.1115945780039,,,0,,
32593,,Gibraltar - Cuatro Nte,,-36.787411192585,-73.1119298541307,,,0,,
32594,,Gibraltar - Sidney,,-36.7858087062297,-73.1124019235722,,,0,,
32595,,Gibraltar - Budapest,,-36.7845756715305,-73.1127559745073,,,0,,
32596,,Gibraltar 2795,,-36.7830633510123,-73.1132039040676,,,0,,
32597,,Gibraltar - Escutari,,-36.7805606527792,-73.1140005194902,,,0,,
32598,,Acceso A Gran Bretaña,,-36.7756302054671,-73.1131046623341,,,0,,
32599,,4 Esquinas,,-36.768556738889,-73.1139873671054,,,0,,
32600,,Gran Bretaña - John Dalton / Poniente,,-36.7674937371206,-73.1159987652063,,,0,,
32601,,Gran Bretaña - Camino A Lenga,,-36.7754927071009,-73.1136008710018,,,0,,
32602,,Gran Bretaña - Dinamarca / Poniente,,-36.7792416011707,-73.1124153342898,,,0,,
32603,,Gibraltar - Dibra,,-36.7801116622184,-73.1142472827196,,,0,,
32604,,Gibraltar - Yugoslavia,,-36.7814371435195,-73.1138449520222,,,0,,
32605,,Gibraltar - Eger,,-36.783314690439,-73.1132897347561,,,0,,
32606,,Gibraltar - Finlandia,,-36.7853060429116,-73.1126889192819,,,0,,
32607,,Gibraltar - Bratislava,,-36.7868849101953,-73.1122275793314,,,0,,
32608,,Gibraltar - Monaco,,-36.7888267649362,-73.111650905048,,,0,,
32609,,Polonia - Monaco,,-36.7892005233646,-73.1119405829668,,,0,,
32610,,Monaco - Polesia / Poniente,,-36.789769182232,-73.1127481865406,,,0,,
32611,,Monaco - Sarajevo / Poniente,,-36.7911100997542,-73.1139361471287,,,0,,
32612,,Postdam - Calle Tres / Sur,,-36.7923430293025,-73.1141775452852,,,0,,
32613,,Postdam - Pje Diecisiete / Sur,,-36.792660924296,-73.1134399378061,,,0,,
32614,,Postdam - Pje Catorce / Sur,,-36.7931420601554,-73.1124689781427,,,0,,
32615,,Postdam - Pje Nueve / Sur,,-36.7938143565406,-73.1110420432742,,,0,,
32616,,Postdam - Calle Dos,,-36.7942697103541,-73.1098833289798,,,0,,
32617,,Gran Bretaña - Bremen / Oriente,,-36.7916814598167,-73.1084671226199,,,0,,
32618,,Gran Bretaña - Cinco Nte,,-36.7870841154807,-73.1098943168035,,,0,,
32619,,Gran Bretaña - Finalandia / Oriente,,-36.7853742159363,-73.1103932076803,,,0,,
32620,,Finladia - Dover / Sur,,-36.7847281907696,-73.108475169247,,,0,,
32621,,Suiza - Belgica / Oriente,,-36.7827991214299,-73.1085046735461,,,0,,
32622,,Suiza - Yugoslavia,,-36.7810912745962,-73.1090196577588,,,0,,
32623,,Yugoslavia - Lisboa,,-36.7805241321141,-73.1074532476123,,,0,,
32624,,Yugoslavia - Oslo,,-36.7803286388465,-73.1064259617233,,,0,,
32625,,Alemania - Belgica / Poniente,,-36.7815230734447,-73.1043231096919,,,0,,
32626,,Sapu Hualpen,,-36.7826616357925,-73.1029578653033,,,0,,
32627,,Alemania - Finlandia / Poniente,,-36.7844704114534,-73.1017830577548,,,0,,
32628,,Grecia - Atenas / Sur,,-36.7867775052888,-73.0991866794284,,,0,,
32629,,Grecia - Suecia,,-36.7867538761892,-73.0968209710772,,,0,,
32630,,Suecia - Escocia / Oriente,,-36.7823028831115,-73.0965607968028,,,0,,
32631,,Escuela Arturo Prat Chacon / Norte,,-36.7762382038091,-73.0894583073314,,,,,
32632,,Escuela Arturo Prat Chacon / Sur,,-36.7763189778609,-73.0896071899042,,,0,,
32633,,Autopista Conce. Talcahuano - Los Aleites,,-36.7654222701826,-73.0859770989628,,,0,,
32634,,Suecia - Milan,,-36.7810096404474,-73.0962577071841,,,0,,
32635,,Chiloe - Dalcahue,,-36.7799075744682,-73.0966144409831,,,0,,
32636,,Chiloé - Tarapacá,,-36.7784853920945,-73.0960833635982,,,0,,
32637,,Tarapacá - Porvenir,,-36.7786014019385,-73.0948844161685,,,0,,
32638,,Colon - Talcahuano / Oriente,,-36.7743518897447,-73.0859955754113,,,0,,
32639,,Colon - Los Pinos / Oriente,,-36.7722743124557,-73.0857568589727,,,0,,
32640,,Colon - Diescisiete Nte / Oriente,,-36.7696337529348,-73.0858373250794,,,0,,
32641,,Colon - Los Geranios,,-36.7614273186996,-73.08857075579,,,0,,
32642,,Colon - Petunias,,-36.7583980042914,-73.0903085675891,,,0,,
32643,,Colon - Las Rosas,,-36.7560492261496,-73.0916335788424,,,0,,
32644,,Colon - Juan Guillermo Sosa,,-36.753076587118,-73.0922775686486,,,0,,
32645,,Colon - Villa El Sauce,,-36.7499717241603,-73.0934306590461,,,0,,
32646,,Colon - Manuel Zañartu,,-36.7471111777527,-73.0947395768817,,,0,,
32647,,Colon - Iquique,,-36.7432897847268,-73.0975585788838,,,0,,
32648,,Colon - Manuel Montt,,-36.7408803618023,-73.0988487214199,,,0,,
32649,,Colon - Buzo Sobenez,,-36.7386385197412,-73.1008764712715,,,0,,
32650,,Colon - Itata,,-36.736461097708,-73.1034835783726,,,0,,
32651,,Colon - Lircay,,-36.7346189460852,-73.105814417986,,,0,,
32652,,Perez Gacitua - Hualpen,,-36.7314864041277,-73.1089045823319,,,0,,
32653,,Perez Gacitua,,-36.7276819994982,-73.1087782588656,,,0,,
32654,,Perez Gacitua - Manuel Rodriguez,,-36.7245991887616,-73.1064205971416,,,0,,
32655,,Estadio El Morro De Talcahuano,,-36.7229416431459,-73.107767066067,,,0,,
32656,,Banco Encalada - Angamos,,-36.7182009939375,-73.1084563934564,,,0,,
32657,,Banco Encalada - Baquedano,,-36.7170292240655,-73.1086870640866,,,0,,
32658,,Banco Encalada - Esmeralda / Norte,,-36.7147372340627,-73.1099316090695,,,0,,
32659,,Banco Encalada / Norte,,-36.7135761597459,-73.1117099123367,,,0,,
32660,,Banco Encalada - Maipu / Norte,,-36.7122215533156,-73.1136813372723,,,0,,
32661,,Valdivia - Colon,,-36.7118087161313,-73.1151485056034,,,0,,
32662,,Valdivia - Condell,,-36.7129569151053,-73.115561565628,,,0,,
32663,,Valdivia 451,,-36.7142448545302,-73.1164761989021,,,0,,
32664,,Valdivia - Tumbes / Poniente,,-36.7155838066635,-73.1181501561514,,,0,,
32665,,Valdivia - La Unión,,-36.7175559853282,-73.1186326947864,,,0,,
32666,,Valdivia - Riquelme / Poniente,,-36.721496904986,-73.1184234828106,,,0,,
32667,,Valdivia,,-36.7242122164232,-73.1175785866435,,,0,,
32668,,España - Malaquias Concha,,-36.7247496776144,-73.118230363516,,,0,,
32669,,España - Talcahuano,,-36.7241434211192,-73.119461497372,,,0,,
32670,,España - Schuyler,,-36.723049137529,-73.1217333284894,,,0,,
32671,,España - Juan De La Cruz Tapia,,-36.7223826703355,-73.123122712841,,,0,,
32672,,Pedro Montt - España,,-36.7215678525869,-73.1255340185817,,,0,,
32673,,Pedro Montt - Cervantes,,-36.7229480928748,-73.1276878320932,,,0,,
32674,,Pedro Montt - La Marina / Norte,,-36.7244315010434,-73.1300374471903,,,0,,
32675,,Los Araucanos - Los Yaganes / Oriente,,-36.7244207516807,-73.1367966139078,,,0,,
32676,,Los Araucanos - Rucamanque,,-36.7230018399166,-73.1356003486871,,,0,,
32677,,Los Araucanos 1351 / Sur,,-36.7219978366449,-73.1338086330652,,,0,,
32678,,Los Araucanos - Los Onas,,-36.7208433240039,-73.1325721347093,,,0,,
32679,,Los Araucanos - Quentrahue / Oriente,,-36.7155456729349,-73.1313892811886,,,0,,
32680,,Los Araucanos - Violeta Parra / Sur,,-36.7147049812437,-73.1295573311218,,,0,,
32681,,Camino A Tumbes - Rosa Linares,,-36.7107938163407,-73.1256118026431,,,0,,
32682,,Camino Nueva Los Lobos - Calle Uno / Poniente,,-36.7095316222287,-73.1297450870625,,,0,,
32683,,San Vicente - Camino San Francisco / Poniente,,-36.7117098079431,-73.1312203013658,,,0,,
32684,,San Vicente - Caleta Coliumo,,-36.7128902598897,-73.1337388956308,,,0,,
32685,,San Vicente - Playa El Parrón / Norte,,-36.7126279388022,-73.1353374935134,,,0,,
32686,,San Vicente - Camino Al Litral,,-36.7119721321653,-73.137888272322,,,0,,
32687,,Bahia Dichato - Caleta El Chalet,,-36.7128472564941,-73.138430078543,,,0,,
32688,,Bahia Dichato - Caleta Chome,,-36.714556622669,-73.1392803388007,,,0,,
32689,,Bahia Dichato - Caleta Cantera,,-36.7162401501741,-73.1402030200115,,,0,,
32690,,Punta Corralillo - Punta Liles,,-36.7168249685952,-73.1448727459065,,,0,,
32691,,Punta Corralillo - Caleta Horcon,,-36.7180590926308,-73.1467744294787,,,0,,
32692,,Tarapacá - Chiloé,,-36.7782374691376,-73.0959103810892,,,0,,
32693,,Interior Urba Playa Pingueral,,-36.7089784345898,-73.1479977761046,,,0,,
32694,,Playa Pingueral / Sur,,-36.7123699171868,-73.1422763662704,,,0,,
32695,,Escuela C / Oriente,,-36.7112733156542,-73.1404363708862,,,0,,
32696,,Camino Al Litral - San Vicente,,-36.7118904247167,-73.1382289128669,,,0,,
32697,,Aviacion,,-36.7772737232303,-73.092642089432,,,0,,
32698,,Aviacion - Tres Sur,,-36.7791255923777,-73.0940261094474,,,0,,
32699,,Las Golondrinas - Napoles,,-36.780216928184,-73.097679277962,,,0,,
32700,,Gran Bretaña - Postdam,,-36.7934741240676,-73.108119796525,,,0,,
32701,,Dinamarca - Roma,,-36.7796918819032,-73.1135566345256,,,0,,
32702,,Suecia - Las Golondrinas,,-36.780790517742,-73.0963328092002,,,0,,
32703,,Suecia - Escocia / Poniente,,-36.7823179206855,-73.0967324581798,,,0,,
32704,,Suecia - Finlandia,,-36.7845284119661,-73.0967297759707,,,0,,
32705,,Suecia - Grecia,,-36.7865583988129,-73.0966975894626,,,0,,
32706,,Grecia - Atenas / Norte,,-36.7866421748924,-73.0992671456988,,,0,,
32707,,Alemania - Finlandia / Oriente,,-36.7844038183309,-73.1015926209147,,,0,,
32708,,Liceo Industrial Henan Valenzuela Leyton,,-36.7823415510874,-73.103081246918,,,0,,
32709,,Alemania - Belgica / Oriente,,-36.7814500330144,-73.1041782704051,,,0,,
32710,,Colegio Sta Teresita,,-36.7801567762214,-73.1062060205841,,,0,,
32711,,Yugoslavia - Suiza,,-36.7806616215861,-73.1088131275828,,,0,,
32712,,Suiza - Belgica / Poniente,,-36.7825155570325,-73.1087863054927,,,0,,
32713,,Finlandia - Dover / Norte,,-36.7845907085602,-73.1083866563495,,,0,,
32714,,Gran Bretaña - Grecia,,-36.7864096114015,-73.1102537328115,,,0,,
32715,,Colegio Montaner,,-36.7871620136341,-73.1100308504756,,,0,,
32716,,Gran Bretaña - Monaco,,-36.7885775916376,-73.1096043795696,,,0,,
32717,,Gran Bretaña - Bremen / Poniente,,-36.7919005516427,-73.1086039152797,,,0,,
32718,,Postdam - Pje Cinco,,-36.7940721042578,-73.1097840872462,,,0,,
32719,,Postdam - Pje Nueve / Norte,,-36.7937134050637,-73.1108650174792,,,0,,
32720,,Postdam - Pje Catorce / Norte,,-36.792987409673,-73.1123885118723,,,0,,
32721,,Postdam - Pje Diecisiete / Norte,,-36.792493385207,-73.1134318911791,,,0,,
32722,,Santiago Watt,,-36.7666965873663,-73.1137510740518,,,0,,
32723,,Evangelista Torricheli,,-36.7649991255107,-73.1153469884157,,,0,,
32724,,Gran Bretaña - Burdeos,,-36.7780041640691,-73.1127962082974,,,0,,
32725,,Calle 9 / Poniente,,-36.7958312101976,-73.1144859999768,,,0,,
32726,,Oceano Pacifico - Mar Rojo / Sur,,-36.8020373690445,-73.104801904301,,,0,,
32727,,Av. Dos - Pje Doce / Sur,,-36.7976675963423,-73.1119486295938,,,0,,
32728,,Av. Dos - Pje Uno,,-36.7977964638594,-73.1087809410747,,,0,,
32729,,Gran Bretaña - Avenida Dos,,-36.7976890738563,-73.1068819370921,,,0,,
32730,,Gran Bretaña - Atenas / Poniente,,-36.7997659627336,-73.1062891688998,,,0,,
32731,,Gran Bretaña - Av La Reconquista / Poniente,,-36.8006701540268,-73.1060129014531,,,0,,
32732,,Oceano Pacifico - Mar Egeo,,-36.8034311953376,-73.1026695481341,,,0,,
32733,,Calle Uno - Pje Dieciseis,,-36.8045780226008,-73.099289964448,,,0,,
32734,,Calle Uno - Pje Pinto,,-36.8026236811927,-73.0975089776621,,,0,,
32735,,Av Rucalhue,,-36.8019329961104,-73.0976229515727,,,0,,
32736,,Pilpilco - Postdam,,-36.7993235278845,-73.0968102422412,,,0,,
32737,,Playa Pingueral / Final,,-36.7100148613827,-73.1502159655793,,,,,
32738,,La Reconquista - Quillon,,-36.7954424486955,-73.0983471480067,,,0,,
32739,,La Reconquista - Toscania / Sur,,-36.7939410826744,-73.0961209148518,,,0,,
32740,,La Reconquista - Patria Nva,,-36.7915353982512,-73.0943479746929,,,0,,
32741,,Curanilahue - Corral / Sur,,-36.7911852789532,-73.0932938665501,,,0,,
32742,,Curanilahue - Calbuco,,-36.7906590230108,-73.0913251251332,,,0,,
32743,,Los Metálicos,,-36.7902874196985,-73.0893402904621,,,0,,
32744,,Curanihue - Pto Cisnes,,-36.7902573476753,-73.0872481671031,,,0,,
32745,,Cristobal Colon - Curanilahue / Oriente,,-36.7897804897302,-73.0867573228534,,,0,,
32746,,Clinica De Dialisis,,-36.7877634765462,-73.0867975558249,,,0,,
32747,,Cristobal Colon - Gasolinera,,-36.7840901855258,-73.0868002381976,,,0,,
32748,,Colon - Aga / Oriente,,-36.7812352076849,-73.0868029205294,,,0,,
32749,,Colon - Concepcion / Oriente,,-36.7786551101401,-73.0864998307675,,,0,,
32750,,Colon - Cuatro Nte,,-36.7769042033825,-73.0863067117389,,,0,,
32751,,Camino Al Litral - Bahia Inglesa,,-36.7103422671663,-73.1397604542144,,,0,,
32752,,Escuela C / Poniente,,-36.7112260109222,-73.1405704813369,,,0,,
32753,,Playa Pingueral / Sur,,-36.712275309044,-73.1422200398811,,,0,,
33634,,Calle 201 - Manuel Rodriguez,,-36.9581192372052,-73.0117215332575,,,0,,
33635,,Manuel Rodriguez - Pje 6,,-36.9580249325321,-73.0120641854592,,,0,,
33636,,Manuel Rodriguez - Pje 4,,-36.9562384799023,-73.0129935708828,,,0,,
33637,,Manuel Rodriguez - España,,-36.9542371102228,-73.0133851733989,,,0,,
33638,,Manuel Rodríguez - Los Pinos,,-36.9505552028207,-73.014386978466,,,0,,
33639,,Manuel Rodriguez - Porvenir / Oriente,,-36.9473232727749,-73.015742835123,,,0,,
33640,,Manuel Rodriguez - Esperanza / Oriente,,-36.9454610057489,-73.0165360984392,,,0,,
33641,,Manuel Rodríguez - Sta María,,-36.9418601364604,-73.0180897680111,,,0,,
33642,,Manuel Rodriguez - Independencia,,-36.938433284243,-73.0196132627315,,,0,,
33643,,Manuel Rodriguez - Carriel,,-36.9365874150912,-73.0204065260477,,,0,,
33644,,Manuel Rodriguez - Calle Nueva,,-36.9330429422707,-73.0219367262907,,,0,,
33645,,Manuel Rodriguez - Pinares / Oriente,,-36.9311229730005,-73.0228164908476,,,0,,
33646,,Manuel Rodriguez - Sto Domingo,,-36.927898795209,-73.0242031929084,,,0,,
33647,,Manuel Rodriguez - Los Cipreses,,-36.9254501514597,-73.0252351728267,,,0,,
33648,,Manuel Rodriguez - Los Carrera,,-36.9231054263161,-73.0262711760587,,,0,,
33649,,Manuel Rodriguez - Sn Ignacio,,-36.922569892557,-73.0264622834511,,,0,,
33650,,Manuel Rodríguez - Guacolda,,-36.9192804855855,-73.0275237676687,,,0,,
33651,,Obispo Sn Miguel / 1sur / Oriente,,-36.9156644401795,-73.0288293329067,,,0,,
33652,,Bomberos De Chiguayante,,-36.9146988814844,-73.0295452941209,,,0,,
33653,,Obispo San Miguel - Las Delicias,,-36.912734128572,-73.0308131696074,,,0,,
33654,,Obispo Sn Migue - Pedro Aguirre Cerda,,-36.9108526090908,-73.0317113664933,,,0,,
33655,,Obispo Sn Miguel - Calle2,,-36.9075021086668,-73.0314907548017,,,0,,
33656,,Obispo San Miguel / Oriente,,-36.9051834612449,-73.0312546732603,,,0,,
33657,,Colón Viejo - Las Violetas / Oriente,,-36.9012494851372,-73.0315303173847,,,0,,
33658,,Colón Viejo - Estadio Español / Oriente,,-36.8981211043747,-73.0325006064958,,,0,,
33659,,Cno. A Chiguayante - Las Palmas / Oriente,,-36.890575248339,-73.035733338911,,,0,,
33660,,Cno. A Chiguayante - Pje C / Oriente,,-36.8849053104552,-73.0374103900976,,,0,,
33661,,Cno. A Chiguayante - Ignacio Verdugo / Oriente,,-36.8796758514793,-73.0379032460041,,,0,,
33662,,Cno A Chiguayante - Av. Nahuelbuta,,-36.875869652885,-73.0397251364775,,,0,,
33663,,Cno A Chiguayante - Uno Pte / Oriente,,-36.8702415381629,-73.0419433233328,,,0,,
33664,,Cno. Chiguayante - Abraham Romero / Oriente,,-36.8674139138197,-73.042660143692,,,0,,
33665,,Cno. A Chiguayate - Errázuriz / Oriente,,-36.8655234080575,-73.0432113376445,,,0,,
33666,,Pedro De Valdivia - Corina Vargas De Medina,,-36.8606011141706,-73.0467498418874,,,0,,
33667,,Colegio Concepción P. De Valdivia,,-36.8574431682748,-73.0494414386339,,,0,,
33668,,Pedro De Valdivia - Sanders / Oriente,,-36.8558620002324,-73.0496117589064,,,0,,
33669,,Pedro De Valdivia - Inglesa / Oriente,,-36.852847120575,-73.0503674712963,,,0,,
33670,,Pedro De Valdivia - Av Alemana / Oriente,,-36.8509374743152,-73.0509300646372,,,0,,
33671,,Pedro De Valdivia - La Mochita,,-36.8469329108669,-73.0513156321831,,,0,,
33672,,Pedro De Valdivia - Arturo Junge,,-36.8441790145832,-73.052512567956,,,0,,
33673,,Pedro De Valdivia - Geswein,,-36.8422627121767,-73.053458717186,,,0,,
33674,,Pedro De Valdivia - Pje Ccu,,-36.8400710601919,-73.0545837152749,,,0,,
33675,,Pedro De Valdivia - Alonso De Ercilla,,-36.8386226249607,-73.0553293693811,,,0,,
33676,,Pedro De Valdivia - Rancagua / Oriente,,-36.8363407069174,-73.0557654169388,,,0,,
33677,,Arturo Prat - Chacabuco,,-36.8341504953032,-73.0560750234872,,,0,,
33678,,Arturo Prat - Cochrane,,-36.8334806998621,-73.0564558971673,,,0,,
33679,,Arturo Prat - San Martín,,-36.8324781425218,-73.057118402794,,,0,,
33680,,San Martín - Serrano,,-36.8317310462814,-73.0566463340074,,,0,,
33681,,San Martín - Salas,,-36.8312565934441,-73.0554607976228,,,0,,
33682,,San Martín - Lincoyán,,-36.8301831598759,-73.0528724659234,,,0,,
33683,,San Martín - Caupolicán,,-36.8291054174215,-73.0502197612077,,,0,,
33684,,San Martín - Aníbal Pinto,,-36.8286094790402,-73.0490664113313,,,0,,
33685,,San Martín - Tucapel,,-36.8270722643256,-73.0452871788293,,,0,,
33686,,San Martín - Orompello,,-36.8264002599233,-73.0437422264367,,,0,,
33687,,San Martín - Ongolmo,,-36.825835599904,-73.0424708593637,,,0,,
33688,,San Martín - Paicaví,,-36.8253482284,-73.041274594143,,,0,,
33689,,Picavi 358,,-36.8246855098858,-73.0412737847655,,,0,,
33690,,Paicaaví - Barros Arana / Oriente,,-36.8232097687223,-73.0422428715974,,,0,,
33691,,Paicaví - Freire,,-36.8224947884516,-73.0426666606218,,,0,,
33692,,Paicaví - Maipú / Oriente,,-36.821414790572,-73.0433559883386,,,0,,
33693,,Paicaví - Martínez De Rosas,,-36.8183722493907,-73.0453247297556,,,0,,
33694,,Paaicaví - Manuel Bulnes / Norte,,-36.8166222503083,-73.0464351642877,,,0,,
33695,,Univ Sn Sebastián - Paicaví,,-36.8147304885061,-73.047567056492,,,0,,
33696,,Paicaví - Bandera / Norte,,-36.8126819218662,-73.0489349830896,,,0,,
33697,,Paicaví - Brasil / Norte,,-36.8105839094838,-73.0502358544618,,,0,,
33698,,Paicaví - Juan De Dios Rivera,,-36.8083870549606,-73.0517378915101,,,0,,
33699,,Paicaví - Ventus,,-36.8062824822247,-73.0531138647348,,,0,,
33700,,Paicaví - El Carmen,,-36.8043453651752,-73.0544630158693,,,0,,
33701,,Paicaví - A Gral. Bonilla,,-36.8009692524873,-73.056597802788,,,0,,
33702,,Duoc - Uc / Paicaví,,-36.7976209123133,-73.0614877212793,,,0,,
33703,,Mall Plaza Trebol,,-36.7915676176071,-73.0700632539447,,,0,,
33704,,Inacap,,-36.7814006232721,-73.0763905851745,,,0,,
33705,,Autopista Concep. Talcahuano - Benavente,,-36.7745280621404,-73.0804863183403,,,0,,
33706,,Autopista Concep. Talcahuano - Rio Colorado / Oriente,,-36.7723538070107,-73.0818247405057,,,0,,
33713,,Autopista Concep. Talcahuano - Rio Lluta,,-36.7700656161956,-73.0830505100766,,,0,,
33714,,Autopista Concep. Talcahuano - Jaime Repullo,,-36.7681232862187,-73.0843862504116,,,0,,
33736,,Almirante Villarroel,,-36.7071361917256,-73.1138905495754,,,0,,
33770,,Autopista Talcahuna Concep. - Rio Lenga,,-36.7696487929943,-73.0837881174739,,,0,,
33771,,Autopista Talcahuna Concep. - Rio Petorca,,-36.7716512430605,-73.0825864878352,,,0,,
33772,,Autopista Talcahuano Concep. - Benavente,,-36.7746891950636,-73.0807706324958,,,0,,
33773,,Inacap / Poniente,,-36.7817550837615,-73.0765837040599,,,0,,
33774,,Mall Plaza Trebol / Poniente,,-36.7919499545494,-73.0706747976001,,,0,,
33775,,Paicaví - Gral Bonilla,,-36.7990277055219,-73.0593258608133,,,0,,
33776,,Paicaví - Calle Nueva,,-36.8017982608649,-73.0561984051019,,,0,,
33777,,Paicaví - Ongolmo,,-36.8048414607948,-73.0541894305497,,,0,,
33778,,Paicaví - Manuel Gutierrez,,-36.8072166619564,-73.0526337493211,,,0,,
33779,,Paicaví - Paredes,,-36.8091708861438,-73.0513275135309,,,0,,
33780,,Paicaví - Brasil / Sur,,-36.8112281363935,-73.0499864090235,,,0,,
33781,,Paicaví - Bandera / Sur,,-36.813371225566,-73.0485997069627,,,0,,
33782,,Paicaví - Gral Cruz,,-36.8155808208215,-73.0471620429307,,,0,,
33783,,Paicaví - Manuel Bulnes,,-36.8174704143694,-73.0460086930543,,,0,,
33784,,Paicaví - Las Heras,,-36.8192633378435,-73.0449009407312,,,0,,
33785,,Paicaví - Maipú / Poniente,,-36.8215114112814,-73.0435169208795,,,0,,
33786,,Paicaví - Barros Arana / Poniente,,-36.8236520654852,-73.042167769745,,,0,,
33787,,Bdo O'Higgins - Ongolmo,,-36.824493710517,-73.0424735415727,,,0,,
33788,,Bdo O'Higgins - Orompello,,-36.8250648215165,-73.0438307393342,,,0,,
33789,,Palacio De Tribunales - Bdo O'Higgins,,-36.826099680964,-73.0463466513902,,,0,,
33790,,Bdo O'Higgins - Colo Colo,,-36.8266192524215,-73.0476180184633,,,0,,
33791,,Bdo O'Higgins - Plaza De Concepción,,-36.8272268459729,-73.0491039622575,,,0,,
33792,,Bdo. O'Higgins - Rengo,,-36.8284549001863,-73.0519900191575,,,0,,
33793,,Bdo O'Higgins - Lincoyán,,-36.8289937778931,-73.0532721150666,,,0,,
33794,,Bdo O'Higgins - Angol,,-36.829373781006,-73.0541491974145,,,0,,
33795,,Bdo O'Higgins - Pedro Villa,,-36.8297086974389,-73.0549914110452,,,0,,
33796,,Bdo O'Higgins - Serrano,,-36.8308723059575,-73.0574080813676,,,0,,
33797,,Barrio Cívico - Bdo O'Higgins,,-36.8312887962184,-73.0588001478463,,,0,,
33798,,Andres Bello,,-36.8342642740742,-73.0574469733983,,,0,,
33799,,Pedro De Valdivia - Rancagua / Ponniente,,-36.8364421388689,-73.056069847662,,,0,,
33800,,Pedro De Valdivia - Juan Calvino,,-36.8407198687076,-73.0545137263834,,,0,,
33801,,Pedro De Valdivia - La Canchas,,-36.841759346146,-73.0539837596007,,,0,,
33802,,Supermercado Sta Isabel,Pedro De Valdivia - Pje 1039,-36.8463984523926,-73.0516904708929,,,0,,
33803,,Pedro De Valdivia - Sta Lucía,,-36.8482084056024,-73.0514321196824,,,0,,
33804,,Pedro De Valdivia - Av. Alemana / Poniente,,-36.8511005929144,-73.0511077609845,,,0,,
33805,,Pedro De Valdivia - Inglesa / Poniente,,-36.8525552305573,-73.0506913480349,,,0,,
33806,,Pedro De Valdivia - Sanders / Poniente,,-36.8553989645118,-73.0498632160015,,,0,,
33828,,Pedro De Valdivia - Corina Vargas,,-36.8606628124595,-73.046946125105,,,0,,
33829,,Cno. A Chiguayante - Errázuriz / Poniente,,-36.8653549555013,-73.0435761180707,,,0,,
33830,,Cno. Chiguayante - Abraham Romero / Poniente,,-36.8676955544033,-73.0428532627411,,,0,,
33831,,Cno. A Chiguayante - Uno Pte / Poniente,,-36.8706959009735,-73.0421619233675,,,0,,
33832,,Cno. A Chiguayante - Ignacio Verdugo / Poniente,,-36.8802728324424,-73.0381164816208,,,0,,
33833,,Cno. A Chiguayante - Pje C / Poniente,,-36.8850646022001,-73.0376289901324,,,0,,
33834,,Cno. A Chiguayante - Las Palmas / Poniente,,-36.8902448889372,-73.0359982070512,,,0,,
33835,,Colón Viejo - Estadio Español / Poniente,,-36.8982203093674,-73.0327352997846,,,0,,
33836,,Colón Viejo / Poniente,,-36.8995925424974,-73.0323213804513,,,0,,
33837,,Colón Viejo - Las Violetas / Poniente,,-36.9014237569484,-73.0317495879717,,,0,,
33838,,Obispor San Miguel / Poniente,,-36.9048016902159,-73.0314799788175,,,0,,
33839,,Obispo Sn Miguel - Calle1,,-36.9067873805399,-73.0316905793733,,,0,,
33840,,Obispo Sn Miguel - Calle Nueva,,-36.9113694598727,-73.031850841362,,,0,,
33841,,Obispo Sn. Miguel - Vilumilla / Poniente,,-36.9132309515109,-73.0307764280587,,,0,,
33842,,Obispo Sn Miguel - 1sur / Poniente,,-36.915904085558,-73.0290700611659,,,0,,
33843,,Manuel Rodriguez - Quintanilla,,-36.9187765547736,-73.0279415217229,,,0,,
33844,,Manuel Rodríguez - Emilio Rojas,,-36.9201891609205,-73.0273675289936,,,0,,
33845,,Manuel Rodriguez - Bolshauzer,,-36.9235165893223,-73.0262155202217,,,0,,
33846,,Manuel Rodriguez - Las Condes,,-36.9264053891785,-73.0249676224775,,,0,,
33847,,Manuel Rodríguez - Corbeta Chacabuco,,-36.9288121920883,-73.0239389953203,,,0,,
33848,,Manuel Rodriguez - Pinares / Poniente,,-36.9320288271748,-73.0225060251541,,,0,,
33849,,Manuel Rodriguez - Libertad,,-36.9339455576769,-73.0216772225685,,,0,,
33850,,Manuel Rodriguez - A. Labarca,,-36.93748838062,-73.020156410057,,,0,,
33851,,Manuel Rodriguez - Central,,-36.9393867514055,-73.0192967620679,,,0,,
33852,,Manuel Rodriguez - Los Aromos,,-36.942855363222,-73.0177907017059,,,0,,
33853,,Manuel Rodriguezz - Esperanza / Poniente,,-36.9464508264373,-73.0162377026863,,,0,,
33854,,Manuel Rodriguez - Porvenir / Poniente,,-36.9482337574073,-73.0154873547144,,,0,,
33855,,Manuel Rodríguez - Dinamarca,,-36.9515069106863,-73.0141186947004,,,0,,
33856,,Italia - Manuel Rodriguez,,-36.952769405698,-73.0139310029335,,,0,,
33857,,Manuel Rodriguez - Francia,,-36.9550885695078,-73.0133114126511,,,0,,
33858,,Manuel Rodriguez - 9 De Abril,,-36.9573422918135,-73.0127099272795,,,0,,
33859,,Grecia - 12 De Octubre,,-36.9580715490613,-73.0125013855286,,,0,,
33860,,Manuel Rodriguez - Calle 201,,-36.958412866917,-73.0118670430966,,,0,,
34408,,Terminal,,-36.9514479651617,-73.0164692737162,,,0,,
34410,,Regimiento Nº7 Chacabuco,,-36.8134442355633,-73.0294809211046,,,,,
34411,,Las Heras - El Roble,,-36.7375815517872,-72.9918696451932,,,0,,
34412,,Las Heras - Hierbas Buenas,,-36.7370764227988,-72.9904132056981,,,0,,
34413,,Los Pinos - Calle 5,,-36.9506264741482,-73.0175949004479,,,0,,
34414,,Los Pinos - Yugoeslavia,,-36.950867617243,-73.0183713999577,,,0,,
34415,,Italia - Yugoeslavia,,-36.9531059246051,-73.0174526805058,,,0,,
34430,,Chiguayante / Oriente,,-36.9155990334802,-73.0283726868219,,,0,,
34431,,Bdo O'Higgins - Arturo Pratt,,-36.9128165162036,-73.0292350170202,,,0,,
34432,,Bdo O'Higgins - Bilbao,,-36.9104746195279,-73.0292853084392,,,0,,
34433,,Bdo O'Higgins - La Plaza,,-36.9082355961368,-73.0295086023397,,,0,,
34434,,Seminario De Concepción,,-36.9051852499543,-73.0298666772432,,,0,,
34435,,Bdo O'Higgins - Colón / Oriente,,-36.9020656100021,-73.0300691840239,,,0,,
34436,,Bdo O'Higgins - Calle1 / Oriente,,-36.8998976585857,-73.0306230601854,,,0,,
34437,,Estadio Español,,-36.8981404091402,-73.0316785094328,,,0,,
34438,,Hotel Terrano,,-36.8960613650944,-73.0326246586628,,,0,,
34442,,Cno A Chiguayante - Av. Nahuelbuta,,-36.8742389798895,-73.0405941721983,,,0,,
34460,,Plaza España,,-36.829730166391,-73.0588886607438,,,0,,
34461,,Arturo Prat - Hipermercado Lider,,-36.828444165532,-73.0597067344934,,,0,,
34462,,Arturo Prat - Los Carrera,,-36.8273599576968,-73.0604333616793,,,0,,
34463,,Los Carrera - Serrano,,-36.8266772209191,-73.0595699418336,,,0,,
34464,,Los Carrera - Angol,,-36.8256294872238,-73.0571023095399,,,0,,
34465,,Los Carrera - Rengo,,-36.8246075036502,-73.0547231901437,,,0,,
34466,,Los Carrera - Anibal Pinto,,-36.8237572716204,-73.0525935161859,,,0,,
34467,,Los Carrera - Castellón,,-36.8224797587646,-73.0495438445359,,,0,,
34468,,Los Carrera - Orompello,,-36.8214448503613,-73.0470440257341,,,0,,
34469,,Los Carrera - Ongolmo,,-36.820895183776,-73.0457404721528,,,0,,
34470,,Los Carrera - Janequeo,,-36.8197936915881,-73.0430958140641,,,0,,
34471,,Los Carrera - Lautaro,,-36.8192654850321,-73.0418593157083,,,0,,
34472,,Los Carrera - Galvarino,,-36.8188188685144,-73.040724741295,,,0,,
34473,,Los Carrera - Maipú,,-36.8178118245917,-73.0382812488824,,,0,,
34474,,Los Carrera - Vilumilla,,-36.8168197982204,-73.0359209049493,,,0,,
34475,,Bomberos / Los Carrera - Fresia,,-36.8158213171365,-73.0336142051965,,,0,,
34476,,Stripcenter Acevedo / Los Carrera,,-36.8151277408897,-73.0319431889802,,,0,,
34477,,Camino A Penco / Oriente,,-36.804454893056,-73.0246502626687,,,0,,
34478,,Camino A Penco / Oriente,,-36.7978722039881,-73.0256775487214,,,0,,
34479,,Camino A Penco - Calle Dos / Oriente,,-36.7916455118577,-73.0250150430948,,,0,,
34480,,Camino A Penco - Los Naranjos / Oriente,,-36.7878564111517,-73.0233735311776,,,0,,
34481,,Ruta 150 / Oriente,,-36.7816525356322,-73.0206323135644,,,0,,
34482,,Ruta 150 / Oriente,,-36.7778994627037,-73.0182424653322,,,0,,
34483,,Ruta 150 / Oriente,,-36.7746167159156,-73.0160752404481,,,0,,
34484,,Ruta 150 / Oriente,,-36.7699114868391,-73.0135164130479,,,0,,
34485,,Ruta 150 - Oriente,,-36.7674233996811,-73.0121377576143,,,0,,
34486,,Ruta 150 / Oriente,,-36.7615058110824,-73.0073151458055,,,0,,
34487,,Ruta 150 / Oriente,,-36.7567546497023,-73.0025810468942,,,0,,
34488,,Ruben Hurtado 78 / Oriente,,-36.7506858003038,-72.9987803567201,,,0,,
34489,,Max Grissar - Abate Molina,,-36.7485259133585,-72.9995447862893,,,0,,
34490,,Max Grissar 137,,-36.7449668028383,-72.9986274708062,,,0,,
34491,,Roberto Ovalle - Piscis / Sur,,-36.7469161670297,-72.9958138335496,,,0,,
34492,,Membrillar - Victoria,,-36.7440963430782,-72.9952666629106,,,0,,
34493,,Membrillar - Cruz,,-36.7428432935448,-72.9958111513406,,,0,,
34494,,Los Carrera - Chacabuco,,-36.7410679259032,-72.9950306285173,,,0,,
34495,,Las Heras - Maipu,,-36.7380909763793,-72.9935902822763,,,0,,
34497,,Infante,,-36.7355868103008,-72.9884820152074,,,0,,
34519,,Infante - Blanco,,-36.7332416330626,-72.9897681344301,,,0,,
34520,,Infante - Los Olivos,,-36.7321883220809,-72.9903421271592,,,0,,
34521,,Central,,-36.7307093630892,-72.9913104046136,,,0,,
34522,,Central / Oriente,,-36.7269903432344,-72.9910395015031,,,0,,
34523,,Central - Victor Orlaly / Oriente,,-36.7262615662149,-72.9909751284868,,,0,,
34524,,Central / Oriente,,-36.7258122577624,-72.990841018036,,,0,,
34525,,Central - El Faro / Oriente,,-36.7248426884608,-72.9903984535486,,,0,,
34526,,Central - Pje 5 / Oriente,,-36.724393371707,-72.9900578130037,,,0,,
34527,,Central - Pje 7 / Oriente,,-36.7236237225471,-72.9894972313195,,,0,,
34528,,Central / Sur,,-36.7227293719354,-72.9880863893777,,,0,,
34529,,C Al Puerto Lirquen / Sur,,-36.7206396467382,-72.9844519961625,,,0,,
34557,,Porvenir - Pje 20 / N,,-36.9500895261146,-73.0214625829831,,,0,,
34558,,Porvenir - 12 De Octubre,,-36.9512571956966,-73.0235822615214,,,0,,
34559,,12 De Octubre - Calle 1,,-36.9524425308139,-73.0229291436262,,,0,,
34560,,Italia - Calle 5 / Sur,,-36.9539268530258,-73.0199190345593,,,0,,
34561,,Italia - Yugoslavia,,-36.9533020479957,-73.0177883619763,,,0,,
34564,,Grecia - 12 De Octubre,,-36.9585730768113,-73.0122251180001,,,0,,
34586,,San Martín - Janequeo,,-36.8249274117406,-73.0403197277337,,,0,,
34587,,Hospital Regional De Concepción - San Martín,,-36.8242296239143,-73.0386326182634,,,0,,
34588,,San Martín - Roosevelt,,-36.8237078891668,-73.0370715726167,,,0,,
34589,,Roosevelt - Valentín Letelier,,-36.822164134656,-73.0360952485353,,,0,,
34590,,Univ Del Desarrollo - Roosevelt,,-36.8214255262124,-73.0359048116952,,,0,,
34591,,Roosevelt - Luis Urrutia Manzano,,-36.8209402737617,-73.0357867944986,,,0,,
34592,,Irarázaval - Pelantaro,,-36.8195381774897,-73.035151110962,,,0,,
34593,,Colegio Salesianos / Irarrazaval - Freire,,-36.818739422034,-73.034418867901,,,0,,
34594,,Irarrazaval - Hospital Guillermo Grant,,-36.817015198371,-73.0329168308526,,,0,,
34595,,Maipú - Plaza Acevedo,,-36.816218563859,-73.0315140355378,,,0,,
34596,,Gral Novoa - Chacabuco,,-36.8161391146795,-73.0292770732194,,,0,,
34597,,Gral Novoa - Bernandino Corral,,-36.8175756290029,-73.0257001300924,,,0,,
34598,,Gral Novoa - Tegualda,,-36.8180694916756,-73.0243230331689,,,0,,
34599,,Superm Sta Isabel / Gral Novoa - Tegualda,,-36.8183099801712,-73.0236804260494,,,0,,
34600,,Gral Novoa - Lago Villarrica,,-36.8189884972103,-73.0218994392635,,,0,,
34601,,Gral Novoa - Caleuche,,-36.8198108689759,-73.0195379722863,,,0,,
34602,,Gral Novoa - Los Lirios,,-36.820293981428,-73.0176979769021,,,0,,
34603,,Av. Collao - Paula Pineda,,-36.8202896871084,-73.0153644550592,,,0,,
34605,,Cno. Nonguén - El Vergel,,-36.8334442044291,-73.0055448878556,,,,,
34626,,Univ. Del Bio Bio / Sur,,-36.821550059531,-73.0095950234681,,,0,,
34627,,Cno. Nonguén - Central / Poniente,,-36.8230272668857,-73.0087286699563,,,0,,
34628,,Cno. Nonguén - Central1 / Poniente,,-36.825185054868,-73.00795619376,,,0,,
34629,,Cno. Nonguén - Río Andalién,,-36.8287189722061,-73.006333457306,,,0,,
34630,,Cesfam Villa Nonguén / Poniente,,-36.8310311736441,-73.0059794057161,,,0,,
34631,,Cno. Nonguén - Calle 1 / Poniente,,-36.8344939778698,-73.0054107774049,,,0,,
34632,,Cno. Nonguén - Estanque / Poniente,,-36.8360288967427,-73.003079937771,,,0,,
34633,,Pque Zoológico Concepción / Poniente,,-36.8400453009314,-73.0069691408426,,,0,,
34634,,Terminal De Buses Las Bahías,,-36.8427585620421,-73.009385811165,,,0,,
34693,,Ruta 150 - Los Mañios / Poniente,,-36.725197410357,-72.9794657696038,,,0,,
34731,,Ruta 150 - El Manzano,,-36.7297033107508,-72.9818046558648,,,0,,
34732,,Ruta 150 - Cementerio,,-36.7306513219665,-72.9826871026307,,,0,,
34733,,Ruta 150,,-36.7319884063242,-72.9845163691789,,,0,,
34734,,Cochrane - Tolten,,-36.7336586542335,-72.9879093635827,,,0,,
34735,,Cochrane - Infante,,-36.7340219337167,-72.9890063870698,,,0,,
34736,,Cochrane - Alcazar,,-36.7345249332403,-72.9905164707452,,,0,,
34737,,Cochrane - Hierbas Buenas,,-36.7349827889157,-72.991734193638,,,0,,
34738,,Cochrane - J Martinez,,-36.7353073703931,-72.9927507508546,,,0,,
34773,,Maipu - Freire,,-36.7367862408129,-72.9940918553621,,,0,,
34774,,Freire - Membrillar,,-36.7382478870705,-72.9976243246347,,,0,,
34775,,Freire - San Vicente,,-36.7391033671153,-72.9999980796129,,,0,,
34776,,San Vicente - Bernardo Ohiggins,,-36.7411861417318,-73.0001911986619,,,0,,
34777,,Ruta 150 / Sur,,-36.7491491705587,-73.000392364338,,,0,,
34778,,Ruta 150 / Poniente,,-36.7515475889711,-73.0000973213464,,,0,,
34779,,Ruta 150 / Poniente,,-36.7566278620791,-73.002897547558,,,0,,
34780,,Ruta 150 / Poniente,,-36.7610588577404,-73.0072936881334,,,0,,
34781,,Ruta 150 - Poniente,,-36.7670087106387,-73.0122530926019,,,0,,
34782,,Ruta 150 / Poniente,,-36.769683737831,-73.0137309897691,,,0,,
34783,,Ruta 150 / Poniente,,-36.7735725667232,-73.0158016551286,,,0,,
34784,,Ruta 150 / Poniente,,-36.7776674407154,-73.0184463132173,,,0,,
34785,,Ruta 150 / Poniente,,-36.781394746003,-73.0208200681955,,,0,,
34792,,Camino A Penco - Los Naranjos / Poniente,,-36.7878628553595,-73.0236927140504,,,0,,
34793,,Camino A Penco - Calle Dos / Poniente,,-36.7917615017804,-73.0253395903856,,,0,,
34794,,Camino A Penco - Calle Ocho,,-36.7941070380912,-73.0257124174386,,,0,,
34795,,Camino A Penco / Poniente,,-36.7969529449645,-73.0259484518319,,,0,,
34796,,Camino A Penco - Calle Cuatro,,-36.7998502917164,-73.0259135831147,,,0,,
34797,,Camino A Penco / Poniente,,-36.8039351711317,-73.0252108443528,,,0,,
34799,,Irarrázaval - Perelló Puig,,-36.8131199847495,-73.0298644769937,,,0,,
34800,,Hospital Clínico Del Sur - Irarrázaval,,-36.8140154290204,-73.0306905973703,,,0,,
34801,,Los Carrera - Fresia,,-36.8156817434743,-73.0340084899217,,,0,,
34802,,Vilumilla - Las Heras,,-36.8156345031002,-73.036038922146,,,0,,
34803,,Vilumilla - Maipú,,-36.8173651995916,-73.034963356331,,,0,,
34804,,Vilumilla - Freire,,-36.81823268038,-73.0343732703477,,,0,,
34805,,Freire - Lientur,,-36.8193019872284,-73.0363634694368,,,0,,
34806,,Lientur - Barros Arana,,-36.8203068643849,-73.036221312359,,,0,,
34807,,Roosevelt - Bdo O'Higgins,,-36.8218163024979,-73.036229358986,,,0,,
34808,,Bdo O'Higgins - Galvarino,,-36.8224797587646,-73.0376267898828,,,0,,
34809,,Bdo O'Higgins - Janequeo,,-36.823551153342,-73.0403250921518,,,0,,
34811,,Bdo O'Higgins - Paicaví,,-36.8240621538892,-73.0414838064462,,,0,,
34828,,Bdo O'Higgins - Serrano,,-36.8307434940775,-73.05748318322,,,0,,
34831,,Pedro De Valdivia - Rancagua / Ponniente,,-36.836667542724,-73.0559571948834,,,0,,
34846,,B Ohiggins - Caupolican,,-36.8973918096586,-73.0322503019124,,,0,,
34847,,Bdo O'Higgins - Calle1 / Poniente,,-36.8999577164419,-73.0307109025306,,,0,,
34848,,Bdo O'Higgins - Colón / Poniente,,-36.902842582791,-73.0301462975331,,,0,,
34849,,Bdo O'Higgins - Pje 6,,-36.9046340406222,-73.0300752189941,,,0,,
34850,,Bdo O'Higgins - Arauco,,-36.907925151643,-73.029743777588,,,0,,
34851,,Bdo O'Higgins - Silva,,-36.9096591207724,-73.0295528587885,,,0,,
34852,,Bdo O'Higgins - Vilumilla,,-36.9123420305836,-73.0294603225774,,,0,,
34853,,Bdo O'Higgins - Portales,,-36.9148350576322,-73.0289667961187,,,0,,
34854,,Chiguayante / Poniente,,-36.9158617321791,-73.0283659812994,,,0,,
34868,,Italia - Portugal,,-36.9528883663733,-73.0156515771523,,,0,,
34869,,Italia - Calle 5 / Norte,,-36.9539102416376,-73.0200021830387,,,0,,
34870,,12 De Octubre - Italia,,-36.9544300156148,-73.0208920058794,,,0,,
34871,,Porvenir - Pje 2,,-36.9509640742672,-73.023073982913,,,0,,
34872,,Porvenir - Pje 20 / Sur,,-36.9501120329944,-73.0214519170113,,,0,,
34873,,Calle 2 - El Molino,,-36.9508708324792,-73.0185839650221,,,0,,
35058,,Cno. Nonguén - Las Vertientes,,-36.836758777429,-73.003439353779,,,0,,
35059,,Cno. Nonguén - Estanque / Oriente,,-36.8360868581106,-73.0029726494104,,,0,,
35060,,Escuela Leopoldo Lucero / Cno Nonguén,,-36.8350049053341,-73.0043861735612,,,0,,
35061,,Cno. Nonguén - Calle 1 / Oriente,,-36.8344446023457,-73.0052713025361,,,0,,
35062,,Cesafam Villa Nonguén / Oriente,,-36.8309023620316,-73.005791651085,,,0,,
35063,,Cno Nonhuén - Río Toltén,,-36.8292557011448,-73.0059794057161,,,0,,
35064,,Cno. Nonguén - Río Palena,,-36.8278516102823,-73.0062073934824,,,0,,
35065,,Cno. Nonguén - Río Itata,,-36.8270765582644,-73.0063415039331,,,0,,
35066,,Cno. Nonguén - Central1 / Oriente,,-36.8253675515583,-73.0076343286783,,,0,,
35067,,Cno. Nonguén - Central / Oriente,,-36.8231625329945,-73.00866429694,,,0,,
35068,,Cno. Nonguén - Collao,,-36.8219043342429,-73.0084443558007,,,0,,
35069,,Univ. Del Bio Bio / Norte,,-36.8213933192866,-73.0095226038247,,,0,,
35070,,Av. Collao - Mercedes Marín Del Solar,,-36.8203734262948,-73.0137470830232,,,0,,
35071,,Escuela René Loubel Bert,,-36.8201329442828,-73.0148441065103,,,0,,
35072,,Av. Collao - Chiloé,,-36.81921609968,-73.0179849732667,,,0,,
35073,,Av. Collao - Cnel José Seguel,,-36.8188038381056,-73.0192563403398,,,0,,
35074,,Estadio Atletico Militar,,-36.8181789999236,-73.0208694710018,,,0,,
35075,,Estadio Collao,,-36.8169357500183,-73.0243134280317,,,0,,
35076,,Collao - Maipú,,-36.8151771288798,-73.0291080940515,,,0,,
35077,,Collao - Irarrazaval,,-36.8146360065546,-73.0303499568254,,,0,,
34530,,Terminal Hualqui,,-36.9651606800613,-72.922671362976,,,0,,
34531,,Bombero Perret - Bio Bio / Norte,,-36.966765836423,-72.9257403128395,,,0,,
34532,,Bombero Perret - Pje Pablo Neruda,,-36.9678159204023,-72.92779837735,,,,,
34535,,Río Bio Bio - Pje Río Gomero,,-36.9651049597399,-72.9268435109406,,,,,
34537,,4 Bombero Perret,,-36.9702982042745,-72.9328208425432,,,0,,
34538,,La Araucana - O722,,-36.9720553979604,-72.9375259394146,,,0,,
34539,,Av La Araucana - Patricio Lynch / N,,-36.9705825008756,-72.9416305292398,,,,,
34540,,O60 - 3 / N,,-36.9646125832052,-72.9529288527556,,,,,
34541,,O60 - 2 / S,,-36.9641378842058,-72.9545931634493,,,,,
34542,,O60 - 2 / N,,-36.9642418253234,-72.9545636591502,,,,,
34546,,O60 - 5 / N,,-36.9694381645239,-72.9445458389819,,,0,,
34547,,O60 - 4 / N,,-36.9690117126817,-72.9450369346887,,,0,,
34548,,O60 - 1 / N,,-36.964223608849,-72.9555842396803,,,0,,
34549,,Talleres Omer Huett / Np,,-36.9670256799808,-72.9972832021303,,,0,,
34679,,Av. Collao - Central / Sur,,-36.821827038082,-73.00795619376,,,0,,
34680,,Av. Collao / P1 Sur,,-36.8220009543343,-73.0051586497575,,,0,,
34682,,Av. Veintiuno De Mayo - Calle A / Poniente,,-36.8187780716834,-72.9873407352716,,,,,
34683,,Av. Collao - P2 / Sur,,-36.8221083098482,-73.0035251844674,,,0,,
34684,,Chile - Concepcion / Poniente,,-36.8254104918928,-72.9947811830789,,,0,,
34685,,Chile - Julio Diestre / Poniente,,-36.8271109097667,-72.9941615927964,,,0,,
34686,,Jorge Giacaman - Los Acacios,,-36.8262134717089,-72.9928580392152,,,0,,
34687,,Jorge Giacaman - Los Alamos / Oriente,,-36.8240986537977,-72.9933113325387,,,0,,
34688,,Jorge Giacaman - Esperanza,,-36.823269886879,-72.9935071337968,,,0,,
34689,,Veintiuno De Mayo / Sur,,-36.8206997935309,-72.9903340805322,,,0,,
34690,,Av. Veintiuno De Mayo - Los Copihues / Oriente,,-36.8194200824502,-72.9879469145089,,,0,,
34691,,Calle A - Calle Dos,,-36.8198065746293,-72.9859513510019,,,0,,
34692,,Collao - Gral Bonilla,,-36.8211313691206,-72.9958613030749,,,0,,
34694,,Av. Collao - P2 / Norte,,-36.8220052485577,-73.0032918322831,,,0,,
34695,,Av Collao - P1 / Norte,,-36.8218570977094,-73.0052015651017,,,0,,
34696,,Av. Collao - Central / Norte,,-36.8217025052141,-73.0073661077768,,,0,,
34789,,Talleres Omer Huett / Sp,,-36.9671639056769,-72.997538682539,,,0,,
34790,,Talleres Omer Huett / No,,-36.9673374910793,-72.996322363615,,,0,,
34791,,Ruta O60,,-36.9655442919357,-72.9565087426454,,,0,,
34798,,Plaza De Hualqui - Irarrázabal,Irarrázabal - La Concepción,-36.9764796319001,-72.9388810135424,,,,,
34810,,Portales - José Miguel Carrera,,-36.9744546874767,-72.9363438952714,,,,,
34818,,O60 - 1 / S,,-36.9642964747199,-72.9553414997646,,,0,,
34819,,O60 - 3 / S,,-36.9645043563801,-72.9533928749152,,,0,,
34820,,O60 - 4 / S,,-36.9691981517207,-72.9450798500329,,,0,,
34821,,O60 - 5 / S,,-36.9699824764696,-72.9441705811769,,,0,,
34822,,Av La Araucana - Patricio Lynch / S,,-36.9708846542325,-72.9412174690515,,,0,,
34823,,Plaza De Hualqui - Manuel Bulnes,,-36.9760167922108,-72.9377279151231,,,0,,
34824,,O - 52,,-36.9735468391527,-72.9323814618692,,,0,,
34874,,Calle 1 - Av La Araucana,,-36.9729675511205,-72.9329589474946,,,0,,
34875,,Guacolda - Bombero Ferret,,-36.9707089339866,-72.9331574309617,,,0,,
34876,,Guacolda - Los Acacios,,-36.9700789092825,-72.9334900248796,,,0,,
34877,,Calle 1 - Los Olivos,,-36.969748894261,-72.9337206948549,,,0,,
34878,,Calle 1 - Los Alerces - / Oriente,,-36.9685166826726,-72.934466348961,,,0,,
34879,,Los Quelues - Javiera Carrera,,-36.967698054555,-72.9347399342805,,,0,,
34880,,Cementerio - Ateuco / Norte,,-36.9665408165428,-72.9351073969156,,,0,,
34881,,Cementerio - El Aguila,,-36.9665643900853,-72.9362956155092,,,0,,
34882,,El Aguila - Pje La Palma,,-36.9653899901851,-72.9366925824434,,,0,,
34883,,El Aguila - Huilliches,,-36.9643891642933,-72.9368803370744,,,0,,
34884,,El Aguila - Picunches,,-36.963129005058,-72.9365236032754,,,0,,
34885,,Lautaro - Pje Paicaví,,-36.9629275490969,-72.9356894362718,,,0,,
34886,,Caupolicán - Lautaro,,-36.9627818146651,-72.9349089134485,,,0,,
34887,,Caupolicán - Colo Colo,,-36.9616673656695,-72.9347560275346,,,0,,
34888,,El Aguila - Colo Colo,,-36.9611851471057,-72.9362151492387,,,0,,
34889,,Cementerio - Ateuco / Sur,,-36.9666801146423,-72.9351073969156,,,0,,
34890,,Escuela Los Libertadores De Hualqui,,-36.9666693994129,-72.9327309597284,,,0,,
34891,,Chile - Argentina,,-36.9663393696097,-72.931403266266,,,0,,
34892,,Chile - Gabriela Mistral,,-36.9653942763491,-72.9294425714761,,,0,,
34893,,Sta María / Sur,,-36.9622395944029,-72.929429160431,,,0,,
34912,,Ruta 160 - Llacolén,,-36.8387889593318,-73.0903675761873,,,,,
34932,,Homecenter / Los Carrera - Ongolmo,,-36.8204292523681,-73.0453032720834,,,0,,
34933,,Los Carrera - Tucapel,,-36.8214427032339,-73.0477735865861,,,0,,
34934,,Los Carrera - Colo Colo,,-36.8223444914489,-73.0499005783349,,,0,,
34935,,Los Carrera - Caupolicán,,-36.8234330644949,-73.0524701345712,,,0,,
34936,,Los Carrera - Lincoyán,,-36.8245044457255,-73.0551657546312,,,0,,
34937,,Los Carrera - Salas,,-36.8256573983484,-73.0578479636461,,,0,,
34938,,Los Carrera - Arturo Prat,,-36.8266342812955,-73.0602914560586,,,0,,
34939,,Univ. Sto. Tomás / Los Carrera - Arturo Prat,,-36.8270507946276,-73.0611926782876,,,0,,
34940,,Ruta 160 - Centro Los Heroes / Norte,,-36.8387567597804,-73.0938866347424,,,0,,
34941,,Ruta 160 - Versluys / Norte,,-36.8386966537925,-73.0962952584377,,,0,,
34942,,Ruta 160 - Av Pdte. Jorge Alessandri / Norte,,-36.838535655247,-73.1007906404193,,,0,,
34943,,Av Pedro Aguirre Cerda - Av San Pedro,,-36.8381514041968,-73.1076570958248,,,0,,
34944,,Ruta 160 / Sur,,-36.8380526578388,-73.1102776127227,,,0,,
34945,,Ruta 160 - Diagonal Biobio,,-36.8375438976704,-73.1192952007405,,,0,,
34946,,Daniel Belmar / Rotonda / Norte,,-36.8399674560492,-73.1300615877262,,,0,,
34947,,Acceso A Rodriguez Aldea,,-36.8370802143303,-73.1348332372363,,,0,,
34948,,Rodriguez Aldea - Pasaje Cinco A / Norte,,-36.8366551687992,-73.1372660011402,,,0,,
34949,,Rodriguez Aldea - Pasaje Seis / Norte,,-36.8367217164878,-73.1381725874598,,,0,,
34950,,Rodriguez Aldea - Doce De Febrero / Norte,,-36.8369041856595,-73.1406026688273,,,0,,
34951,,Rodriguez Aldea - Tercera Transversal / Norte,,-36.8370201070249,-73.1423568336459,,,0,,
34952,,Rodriguez Aldea - Coronel Patiño / Norte,,-36.8371102679653,-73.1438856927434,,,0,,
34953,,Rodriguez Aldea / Miguel Bayer / Norte,,-36.8372884428446,-73.1466242277384,,,0,,
34954,,Rodriguez Aldea - Calle Dos,,-36.8374472972063,-73.1489550673723,,,0,,
34955,,Las Amazonas - Primera Longitudinal / Poniente,,-36.8389521039148,-73.1490113937616,,,0,,
34956,,Las Amazonas - Segunda Longitudinal,,-36.8401971427174,-73.1488531434297,,,0,,
34957,,Segunda Longitudinal - Miguel Brayer,,-36.8401091320195,-73.1460287776645,,,0,,
34958,,Segunda Longitudinal - Cuarta Transversal,,-36.8398493925401,-73.1428154912646,,,0,,
34959,,Rodriguez Aldea - Pasaje Seis / Sur,,-36.8368311980431,-73.1381377187427,,,0,,
34960,,Daniel Belmar / Templo,,-36.8353950451867,-73.1378668156322,,,0,,
34961,,Parroquia El Buen Pastor / Oriente,,-36.833782829511,-73.1383013334926,,,0,,
34962,,Servicio Austral / Oriente,,-36.8300451921701,-73.1387680378612,,,0,,
34963,,Av. Venus - Los Boldos,,-36.8283985127683,-73.1404551473315,,,0,,
34964,,Av. Venus - Bio Bio / Norte,,-36.8284650676072,-73.1428074446376,,,0,,
34965,,Saturno / Oriente,,-36.8273545294904,-73.1444250750064,,,0,,
34966,,Mercurio - Tierra / Norte,,-36.8255838328462,-73.1467234694719,,,0,,
34967,,Av. Venus / Boca Sur,,-36.8287141111622,-73.1476407856098,,,0,,
34968,,El Sol - Pasaje Ganimides / Oriente,,-36.826504895001,-73.1488316851028,,,0,,
34969,,Mercurio - Tierra / Sur,,-36.8256310670793,-73.1465920412302,,,0,,
34970,,Saturno / Poniente,,-36.8272128298954,-73.1445377277851,,,0,,
34971,,Av. Venus - Bio Bio / Sur,,-36.8286046179239,-73.1433036533053,,,0,,
34972,,Av. Venus - Galvarino / Sur,,-36.8285573855919,-73.141442200249,,,0,,
34973,,Av. Venus - Daniel Belmar,,-36.8286389687728,-73.1396182981189,,,0,,
34974,,Servicio Austral / Poniente,,-36.8300237233064,-73.1389021483119,,,0,,
34975,,Parroquia El Buen Pastor / Poniente,,-36.8338128844416,-73.1384166684802,,,0,,
34976,,Daniel Belmar - Pasaje Uno,,-36.8353392300321,-73.1380089727099,,,0,,
34977,,Doce De Febrero - Segunda Longitudinal,,-36.8394651482215,-73.1406804528888,,,0,,
34978,,Segunda Longitudinal - Pasaje Catorce,,-36.8397442085331,-73.1427377072313,,,0,,
34979,,Segunda Longitudinal - Pasaje Diecisiete,,-36.8399867755152,-73.145580848759,,,0,,
34980,,Segunda Longitudinal - Las Amazonas,,-36.8402486611277,-73.1486680710077,,,0,,
34981,,Las Amazonas - Primera Longitudinal / Oriente,,-36.8388855581668,-73.1489228808641,,,0,,
34982,,Calle Dos - Rodriguez Aldea,,-36.8375846844963,-73.1490489446878,,,0,,
34983,,Rodriguez Aldea - Miguel Bayer / Sur,,-36.8373700167473,-73.1466188633203,,,0,,
34984,,Rodriguez Aldea - Coronel Patiño / Sur,,-36.8372047221699,-73.1438320485631,,,0,,
34985,,Rodriguez Aldea - Tercera Transversal / Sur,,-36.8371102679653,-73.1423461048098,,,0,,
34986,,Rodriguez Aldea - Doce De Febrero / Sur,,-36.8370201070249,-73.1408708897288,,,0,,
34987,,Daniel Belmar - Segunda Longitudinal,,-36.8383574834042,-73.1347071734126,,,0,,
34988,,Daniel Belmar / Rotonda / Sur,,-36.8401220116402,-73.1302198380581,,,0,,
34989,,Ruta 160 - Pasaje Noventa,,-36.8377499779905,-73.1173023194424,,,0,,
34990,,Ruta 160 / Sur,,-36.837964644935,-73.1137081580527,,,0,,
34991,,Ruta 160 / Sur,,-36.8383360168732,-73.1043526143185,,,0,,
34992,,Av Pedro Aguirre Cerda 1501,,-36.8386107880136,-73.1018045150995,,,0,,
34993,,Ruta 160 - Versluys / Sur,,-36.8387803727031,-73.0971669763676,,,0,,
34994,,Ruta 160 - Centro Los Heroes / Sur,,-36.838917757664,-73.0942058176151,,,0,,
34995,,Av Pedro Aguirre Cerda / Pincheira,,-36.839061582212,-73.0913197607151,,,0,,
34996,,Mall Plaza Mirador - Los Carrera,,-36.8286824745015,-73.0639634002,,,0,,
34997,,Los Carrera - Arturo Prat,,-36.8273277532687,-73.0611148942262,,,0,,
35043,,Tucapel - Pje Las Rosas,,-36.85457071591,-73.1354166383244,,,0,,
35044,,Ruta 160 - Daniel Belmar / Poniente,,-36.8415602223014,-73.1293508023373,,,0,,
35045,,Ruta 160 - Av Michaihue / Poniente,,-36.8461730465615,-73.1307321396525,,,0,,
35046,,Ruta 160 - Colegio Alborada / Poniente,,-36.8481284227826,-73.131182750767,,,0,,
35047,,Central - Av Las Torres,,-36.8529898154117,-73.1377487984355,,,0,,
35048,,Central - Pasaje Treinta Y Dos,,-36.8527794834038,-73.1402271592378,,,0,,
35049,,Central / Poniente,,-36.8526485621679,-73.1415924036264,,,0,,
35050,,Lautaro / Sur,,-36.853599345717,-73.1422200405359,,,0,,
35051,,Galvarino - Central / Oriente,,-36.8526013446179,-73.1458249301068,,,0,,
35052,,Central - Pasaje Sesenta Y Ocho,,-36.8521270217722,-73.1466912836186,,,0,,
35053,,Central - Calle C / Oriente,,-36.8507061797862,-73.1479492383369,,,0,,
35054,,Central - Loncomilla,,-36.8491543845652,-73.1480323877986,,,0,,
35055,,Central - Los Boldos / Oriente,,-36.8472655736211,-73.1481504049952,,,0,,
35056,,Central - Pasaje Ciento Doce / Oriente,,-36.8460678715143,-73.1482147776842,,,0,,
35057,,Central - Pasaje Ciento Veintiuno / Oriente,,-36.8437368060975,-73.1483757102251,,,0,,
35078,,Memorial Costanera,,-36.8327336134128,-73.0649102199823,,,0,,
35079,,Esmeralda - Nueva Costanera,,-36.8369111928109,-73.0598488915712,,,0,,
35080,,Esmeralda - Errázuriz,,-36.8362285412694,-73.0587384570389,,,0,,
35081,,Victor Lamas - Bombero Fuentes,,-36.8348438991485,-73.0547473300248,,,0,,
35082,,Serrano - Chacabuco,,-36.8331157447495,-73.0551577080041,,,0,,
35103,,Tegualda - Terminal Collao,,-36.8148593273429,-73.0222829958075,,,0,,
35108,,Pelantaro - Las Heras,,-36.8160661072525,-73.0372539628297,,,0,,
35125,,Costanera - Central Norte,,-36.8317847172315,-73.0652642715722,,,0,,
35127,,Los Peñascales,,-36.8351158212081,-73.1008365395246,,,0,,
35128,,Av Las Margaritas - Los Crisantelmos,,-36.836963429348,-73.1027607442229,,,0,,
35129,,Av Las Margaritas - Las Petunias,,-36.8364289011935,-73.1131113888114,,,0,,
35130,,Av Las Rosas - Pje Las Yerbateras,,-36.8347594609123,-73.1046023609815,,,0,,
35131,,Terminal,,-36.8305252293575,-73.1239072827157,,,0,,
35134,,Juan Pablo II,,-36.8385491023223,-73.0974266398698,,,0,,
35135,,Av Pdte. Jorge Alessandri / Oriente,,-36.8350558598953,-73.1011876063712,,,0,,
35136,,Av Las Rosas - Las Azaleas,,-36.8344612092246,-73.1102078762706,,,0,,
35137,,Enrique Soro / Oriente,,-36.8316961296129,-73.1006243424781,,,0,,
35138,,Enrique Soro - Pasaje Dos / Norte,,-36.8311443898592,-73.1022685366042,,,0,,
35139,,Enrique Soro - Crispulo Gandara / Norte,,-36.830983375548,-73.1051814155944,,,0,,
35140,,Enrique Soro - Los Cipreses / Norte,,-36.8308588575653,-73.1070911497227,,,0,,
35141,,Enrique Soro - Ted Guzman / Norte,,-36.8306012335759,-73.1096043769503,,,0,,
35142,,Enrique Soro - Moises Amaral / Norte,,-36.830399427486,-73.1128659457318,,,0,,
35143,,Enrique Soro - Los Claveles / Norte,,-36.8302942304506,-73.1147059384966,,,0,,
35144,,Enrique Soro - Las Garzas / Norte,,-36.8303972805934,-73.1165593475453,,,0,,
35145,,Las Garzas - Las Violetas / Poniente,,-36.8319473095157,-73.1165861670161,,,0,,
35146,,Las Golondrinas / Oriente,,-36.8356719736207,-73.1165539831272,,,0,,
35147,,Calle E,,-36.8334758390881,-73.1170689646387,,,0,,
35148,,Candelaria - Los Choroyes,,-36.8339073426198,-73.1187319368473,,,0,,
35149,,Av Las Torres - La Marina,,-36.8292723092811,-73.1230797970056,,,0,,
35150,,Av Las Torres - Ejercito,,-36.8280528554322,-73.1262957662693,,,0,,
35151,,Av Las Torres - Pasaje Cinco / Norte,,-36.8273271861268,-73.1281679475069,,,0,,
35152,,Av Las Torres - Pasaje Cinco / Sur,,-36.827494649006,-73.1282162272691,,,0,,
35153,,Av Las Torres - Pasaje Uno,,-36.8289588601064,-73.1244316303491,,,0,,
35154,,Candelaria - Las Tortolas,,-36.834064057263,-73.1193193380022,,,0,,
35155,,Candelaria - Los Pidenes,,-36.8339245168394,-73.1177422017208,,,0,,
35156,,Las Garzas - Las Violetas / Oriente,,-36.8319344285184,-73.1164386455202,,,0,,
35157,,Las Garzas - Enrique Soro,,-36.8307772767208,-73.1166371316067,,,0,,
35158,,Enrique Soro - Los Claveles / Sur,,-36.8303865461953,-73.1146496121073,,,0,,
35159,,Enrique Soro - Moises Amaral / Sur,,-36.8304917431038,-73.1128739923588,,,0,,
35160,,Enrique Soro - Ted Guzman / Sur,,-36.8306742271369,-73.1096419278765,,,0,,
35161,,Enrique Soro - Los Cipreses / Sur,,-36.8308846199198,-73.1072574466816,,,0,,
35162,,Enrique Soro - Crispullo Gandara / Sur,,-36.8310606624597,-73.1051733689674,,,0,,
35163,,Enrique Soro - Pasaje Dos / Sur,,-36.8313075506822,-73.1022524459695,,,0,,
35164,,Enrique Soro - Las Violetas,,-36.8324281984615,-73.1009274320968,,,0,,
35165,,Av Pdte. Jorge Alessandri / Poniente,,-36.8345900147136,-73.1014477806457,,,0,,
35172,,Salas - Chacabuco,,-36.8332445526351,-73.0534062255174,,,0,,
35173,,Salas - Cochrane,,-36.8320917143429,-73.0541196931154,,,0,,
35190,,Irarrazaval - Gral Novoa,,-36.8149301886107,-73.0309910047799,,,0,,
35192,,Av Gral Oscar Bonilla - Regimiento / Sur,,-36.8123920259329,-73.0252200146788,,,0,,
35234,,Ruta 160 / Costamar,,-36.8549643325735,-73.1328323093112,,,0,,
35235,,Ruta 160 - Uno / Poniente,,-36.8698638535159,-73.1364693850628,,,0,,
35236,,Ruta 160 / Poligono Industrial,,-36.8756121501339,-73.1378507220506,,,0,,
35237,,Manuel Rodriguez / Central Electrica,,-36.8806069591806,-73.1374403443988,,,0,,
35238,,Manuel Rodriguez / Escuela Lenguaje,,-36.8808901602165,-73.1353938189204,,,0,,
35239,,Manuel Rodriguez / Iglesia,,-36.8811240148256,-73.1336584296878,,,0,,
35240,,Los Castaños - Gabriela Mistral,,-36.8820701532274,-73.1335699167903,,,0,,
35241,,Los Castaños - Victoria,,-36.8838722891812,-73.1339427438434,,,0,,
35242,,Victoria - Los Castaños,,-36.8842450167342,-73.133433383282,,,0,,
35243,,Victoria - Los Cipreses,,-36.8844638435644,-73.1317972357419,,,0,,
35244,,Progreso - Victoria,,-36.8848205388785,-73.1301876511406,,,0,,
35245,,Progreso - Los Sauces,,-36.8869057885128,-73.1304022281074,,,0,,
35246,,Progreso / Sur,,-36.8889947051026,-73.1305044110377,,,0,,
35247,,Jerusalem - Los Boldos,,-36.8890118669135,-73.1322800334772,,,0,,
35248,,Jerusalem / Poniente,,-36.8880942696509,-73.1381028500255,,,0,,
35249,,Javier Carrera - Las Araucarias,,-36.887003904669,-73.1385724955908,,,0,,
35250,,Javier Carrera,,-36.8844815728827,-73.1382020915953,,,0,,
35251,,Coloane / Intermedia,,-36.8938224550009,-73.1332108003699,,,0,,
35259,,Ruta 160 - Jerusalem / Oriente,,-36.88799773307,-73.1404685583766,,,0,,
35260,,Benjamin Subercaseaux - Luis Duran,,-36.8936851687959,-73.1395773030818,,,0,,
35261,,Benjamin Subercasseaux - Edgard Garrido,,-36.8942300219673,-73.1361333467066,,,0,,
35262,,Benjamin Subercaseaux / Oriente,,-36.8948242078034,-73.1320418883115,,,0,,
35263,,Polígono Coloane / Oriente,,-36.8941742497741,-73.1314609386027,,,0,,
35264,,Edgard Garrido - Daniel Belmar,,-36.8933891445761,-73.1356360483915,,,0,,
35265,,Maria Luisa Bombal / Oriente,,-36.8923353228827,-73.1362735834773,,,0,,
35266,,Maria Luisa Bombal - Pje Juan Guzman,,-36.8919213103542,-73.1390711271524,,,0,,
35267,,Maria Luisa Bombal / Poniente,,-36.8916638921059,-73.1407636016957,,,0,,
35268,,Ruta 160 / Carrozi,,-36.8814431197407,-73.1388997250906,,,0,,
35269,,Ruta 160 / Central Electrica,,-36.8799654620413,-73.1385427326313,,,0,,
35270,,Ruta 160 / Colegio Galvarino,,-36.8778306752322,-73.1380357951275,,,0,,
35271,,Cementerio Parque San Pedro,,-36.8699346638324,-73.1361072865184,,,0,,
35272,,Ruta 160 - Lagunillas Callejon,,-36.8556339398554,-73.1326365080531,,,0,,
35273,,Ruta 160 - Colegio Alborada,,-36.8478043188094,-73.1307857841603,,,0,,
35274,,Ruta 160 - Av Michaihue / Oriente,,-36.8460957749198,-73.1303593125995,,,0,,
35275,,Ruta 160 - Daniel Belmar / Oriente,,-36.8413562985548,-73.1288197249523,,,0,,
35318,,Los Copihues - Los Crisantemos,,-36.8361662865805,-73.0010039079934,,,0,,
35319,,30 De Octubre - Azucenas,,-36.8345175922396,-73.0022430885583,,,0,,
35320,,30 De Octubre - Los Tilos,,-36.8336782042557,-73.0031148064882,,,0,,
35321,,Cno. Nonguén - 30 De Octubre,,-36.8329053580699,-73.0054912436754,,,0,,
35387,,Rene Schneider - Pje Los Lobos,,-36.8457128450858,-73.140542343026,,,0,,
35399,,Longitudinal Uno - Manuel Rodriguez / Norte,,-36.8421741368242,-73.1402566640281,,,0,,
35400,,Rene Schneider - Volcan Villarrica / Poniente,,-36.8478472462875,-73.1401010957416,,,0,,
35401,,Nueva Los Copihues - Pasaje Nueve / Sur,,-36.8485576971488,-73.1370943397633,,,0,,
35402,,Galvarino - Loncomilla,,-36.8494849217713,-73.1421798077281,,,0,,
35409,,Pincheira - Lota,,-36.840184830156,-73.0906647909433,,,0,,
35410,,Terminal Candelaria,,-36.824664042139,-73.1301809696015,,,0,,
35411,,Michimalongo - Galvarino,,-36.841809790226,-73.091697441414,,,0,,
35412,,Av. Michimalongo - Centro Comercial,,-36.842777880803,-73.0934247840196,,,0,,
35413,,Av. Michimalongo - Servicentro Copec,,-36.8440646529525,-73.0972128319263,,,0,,
35414,,Forestal Mininco / Oriente,,-36.8433568742705,-73.0986851064449,,,0,,
35415,,Los Canelos - Cangrejeras / Oriente,,-36.8419036715273,-73.0995326844322,,,0,,
35416,,Los Canelos - Madreselvas / Oriente,,-36.8406779798639,-73.1002086011449,,,0,,
35417,,Ruta 160 - Av Los Claveles,,-36.8375353107053,-73.1149178356281,,,0,,
35418,,Diagonal Bio Bio,,-36.8373619970923,-73.1181976664811,,,0,,
35419,,Av. Diagonal Biobio - Las Torcazas / Oriente,,-36.8364828653561,-73.1190942937246,,,0,,
35420,,Av. Diagonal Biobio - Las Palomas / Oriente,,-36.8353220559992,-73.1198960152324,,,0,,
35421,,Av. Diagonal Biobio - Candelaria / Oriente,,-36.8339159298283,-73.1202312913592,,,0,,
35422,,Av. Diagonal Biobio - Los Abetos / Oriente,,-36.8320374765011,-73.1204726901706,,,0,,
35423,,Av. Diagonal Biobio - Av Las Torres,,-36.8306699334655,-73.1207194533999,,,0,,
35424,,Diagonal Biobio - Las Torres / Oriente,,-36.8294934404606,-73.1211191025432,,,0,,
35425,,Diagonal Biobio - Central,,-36.8283147824292,-73.1203412619288,,,0,,
35426,,Central - La Marina / Norte,,-36.8276342011254,-73.1212102976497,,,0,,
35427,,Central - Carlos Condell / Norte,,-36.8272456009902,-73.1222483125384,,,0,,
35428,,Central - Aviación / Norte,,-36.8267002705552,-73.12370743457,,,0,,
35429,,Central - Ejercito / Norte,,-36.8259788818978,-73.1255179250002,,,0,,
35430,,Central - Carabinero / Norte,,-36.8252682215404,-73.1273391449213,,,0,,
35474,,Fresia - Galvarino,,-36.8501567233738,-73.1449719873126,,,0,,
35475,,Consultorio San Pedro De La Costa,,-36.8487379917188,-73.1465732660945,,,0,,
35476,,Gimnasio Michailuhe,,-36.843098725382,-73.146924895118,,,0,,
35477,,Central - Pasaje Ciento Veintiuno / Poniente,,-36.8438033476242,-73.1484856807947,,,0,,
35478,,Central - Pasaje Ciento Doce / Poniente,,-36.8460850430032,-73.148359616971,,,0,,
35479,,Central - Los Boldos / Poniente,,-36.8472634272183,-73.1482952442821,,,0,,
35480,,Central - Loncomilla,,-36.8492144823989,-73.1481718626674,,,0,,
35481,,Central - Calle C,,-36.850804909805,-73.1480806665786,,,0,,
35482,,Central - Pasaje Sesenta Y Siete,,-36.8522337685761,-73.1467264116509,,,0,,
35483,,Galvarino - Central / Poniente,,-36.8525755895784,-73.1459536767943,,,0,,
35484,,Tucapel - Galvarino,,-36.8535006193073,-73.1459483104118,,,0,,
35485,,Lautaro - Pasaje Veintidos,,-36.8530220090354,-73.1418686718098,,,0,,
35486,,Central - Pasaje Veinticinco,,-36.8529061119269,-73.1400662266969,,,0,,
35487,,Central - Pasaje Veintiocho,,-36.8530622206547,-73.1384920293203,,,0,,
35488,,Central - Pasaje Siete,,-36.8533138972707,-73.1359731762313,,,0,,
35489,,Pasaje Las Rosas - Tucapel,,-36.8543757082455,-73.135729354035,,,0,,
35490,,Tucapel / Bigger,,-36.8547797603043,-73.1348332372363,,,0,,
35491,,Nueva Uno / Sur,,-36.8546810354192,-73.1331970897372,,,0,,
35492,,Instituto Forestal,,-36.8479932006858,-73.1313785523525,,,0,,
35507,,Las Camelias Ote,,-36.8494103668631,-73.1368854267203,,,0,,
35508,,Segunda Longitudinal - Doce De Febrero,,-36.8395708996635,-73.1408212893257,,,0,,
35510,,Nueva Los Copihues - Pasaje Nueve / Norte,,-36.8484696960733,-73.1369977802387,,,0,,
35511,,Rene Schneider - Volcan Villarrica / Oriente,,-36.8477978793843,-73.1399696674998,,,0,,
35512,,Rene Schneider - Pje Los Peumos,,-36.8452243173725,-73.1405248847659,,,0,,
35513,,Longitudinal Uno - Manuel Rodriguez / Sur,,-36.842232093273,-73.1401949732208,,,0,,
35546,,Los Copihues - Los Chorrillos,,-36.8379530468702,-73.0028484557988,,,0,,
35547,,Treinte De Octubre - Pje Tres,,-36.8356088537072,-73.0012713168981,,,0,,
35548,,Treinta De Octubre - El Sauce,,-36.8330477620236,-73.0046509002568,,,0,,
35553,,Lo Canelos - Los Copihues,,-36.8404660344352,-73.001457201317,,,0,,
35568,,Los Copihues - Pje Uno,,-36.8386542879731,-73.0031174886972,,,0,,
35575,,Los Carrera - Pelantaro,,-36.8166888154226,-73.036411749199,,,0,,
35576,,Los Carrera - Ainavillo,,-36.8176121320051,-73.0386031139642,,,0,,
35577,,Los Carrera - Lautaro,,-36.8186492394427,-73.0410573352128,,,0,,
35578,,Los Carrera - Paicaví,,-36.8197163932954,-73.0436563957483,,,0,,
35587,,Nueva Uno / Intermedia,,-36.852950319256,-73.1329624170758,,,0,,
35606,,Gimnasio Michaihue / Poniente,,-36.8431744205592,-73.1470748395077,,,0,,
35607,,Consultorio San Pedro De La Costa / Poniente,,-36.8486585763059,-73.1467207875903,,,0,,
35616,,Av Central / Sur,,-36.8246026424106,-73.1293159323104,,,0,,
35617,,Central - Costanera,,-36.8249096683414,-73.1285649157508,,,0,,
35618,,Central - Carabinero / Sur,,-36.8253541022968,-73.1273659670114,,,0,,
35619,,Central - Ejercito / Sur,,-36.8261012608098,-73.1255527937174,,,0,,
35620,,Central - Aviación / Sur,,-36.8268011785455,-73.1237449854962,,,0,,
35621,,Central - Carlos Condell / Sur,,-36.8273400673756,-73.1222724524196,,,0,,
35622,,Central - La Marina / Sur,,-36.8277265200799,-73.1213175860103,,,0,,
35623,,Central - Diagonal Biobio / Sur,,-36.8280721784317,-73.1205290165599,,,0,,
35624,,Diagonal Biobio - Las Torres / Poniente,,-36.8294290333869,-73.1211915221866,,,0,,
35625,,Av. Diagonal Biobio - Los Alamos,,-36.8309812287701,-73.1207784619983,,,0,,
35626,,Av. Diagonal Biobio - Los Abetos / Poniente,,-36.8318120590021,-73.1206658092196,,,0,,
35627,,Av. Diagonal Biobio - Candelaria / Poniente,,-36.8339567185889,-73.1203573551829,,,0,,
35628,,Av. Diagonal Biobio - Las Palomas / Poniente,,-36.8355302892999,-73.1199818459208,,,0,,
35629,,Av. Diagonal Biobio - Las Torcazas / Poniente,,-36.8366030807641,-73.1192069465033,,,0,,
35638,,Terminal Michaihue,,-36.8467896377268,-73.14448518684,,,0,,
35639,,Tucapel - Pje Diecinueve,,-36.854044895418,-73.1407542341003,,,0,,
35640,,Tucapel - Tucapel,,-36.8545127682898,-73.1366692296888,,,0,,
35641,,Galvarino - Pasaje Los Canelos,,-36.8455656037568,-73.1444650499725,,,,,
35646,,Galvarino - Fresia,,-36.8503649162497,-73.1451597419436,,,0,,
35647,,Galvarino - Loncomilla,,-36.8488775050824,-73.1447332707103,,,0,,
35648,,Galvarino - Los Boldos,,-36.8473385512793,-73.1443604436572,,,0,,
35649,,Galvarino - Camilo Henriquez,,-36.8467090862936,-73.144376795899,,,0,,
35650,,Galvarino - Las Vegas,,-36.8438119336234,-73.1446072070503,,,0,,
35678,,Enrique Soro - Las Garzas / Sur,,-36.8305303868177,-73.1169080347172,,,0,,
35681,,Los Peñascales / Oriente,,-36.8350871970789,-73.1007651794062,,,0,,
35688,,Acceso A Vega Monumental / Oriente,,-36.8101458320887,-73.0813119281083,,,0,,
35689,,Maipú - Lientur,,-36.8183987315123,-73.0368669127347,,,0,,
35690,,Av. Padre Hurtado - Maipú,,-36.8285858628466,-73.0613884795457,,,,,
35691,,Vega Monumental - 21 De Mayo,,-36.8082453202461,-73.0780664552003,,,0,,
35692,,21 De Mayo - Cuarto Centenario / Sur,,-36.8095316605396,-73.0761164892465,,,0,,
35693,,21 De Mayo - Miraflores,,-36.8110928491922,-73.0730721820146,,,0,,
35694,,21 De Mayo - Abraham Valenzuela,,-36.8124822158964,-73.0702853668481,,,0,,
35695,,Condominio Bordelaguna / 21 De Mayo,,-36.813504361391,-73.06900058873,,,0,,
35696,,21 De Mayo - Argomedo / Poniente,,-36.8156387976808,-73.0674851406366,,,0,,
35697,,21 De Mayo - Gral Cruz,,-36.822645085159,-73.0640063155442,,,0,,
35698,,Maipú - Serrano,,-36.8277120585595,-73.0592695344239,,,0,,
35699,,Maipú - Salas,,-36.8271194976398,-73.0577701795846,,,0,,
35700,,Parroquia San José / Maipú - Lincoyán,,-36.8261597968503,-73.0554822552949,,,0,,
35701,,Maipú - Rengo,,-36.8255436067765,-73.0540150869638,,,0,,
35702,,Maipú - Caupolicán,,-36.8246461503361,-73.0519041884691,,,0,,
35703,,Maipú - Anibal Pinto,,-36.8241566242049,-73.0506864655763,,,0,,
35704,,Maipú - Colo Colo,,-36.8236520654852,-73.0495197046548,,,0,,
35705,,Maipú - Castellón,,-36.8233729464664,-73.0488035548478,,,0,,
35706,,Maipú - Tucapel,,-36.822969295623,-73.0478352773935,,,0,,
35707,,Maipú - Ongolmo,,-36.8218055669123,-73.0450377333909,,,0,,
35708,,Maipú - Paicaví,,-36.8212709328453,-73.0437395442277,,,0,,
35709,,Maipú - Janequeo,,-36.8207556193662,-73.0425432790071,,,0,,
35714,,Estanque - Providencia,,-36.8364453589287,-73.0056513660202,,,0,,
35753,,Cuarta Transversal,,-36.8410720867868,-73.142870500451,,,0,,
35754,,Longitudinal Uno - Transversal Uno,,-36.8424544696184,-73.1430475262459,,,0,,
35768,,Galvarino - Las Vegas / Poniente,,-36.8438269591197,-73.1447547285461,,,0,,
35810,,Camilo Henriquez - Pasaje Los Rosales,,-36.846267489835,-73.141254445618,,,0,,
35811,,Longitudinal Uno - Longitudinal Dos,,-36.8424716419188,-73.1423555128413,,,0,,
35812,,Cuarta Transversal - Segunda Longitudinal,,-36.8399408325552,-73.1428946368533,,,0,,
35830,,Estanque / Valparaíso,,-36.8364925864561,-73.0061027873307,,,0,,
35831,,Arturo Prat - Las Heras,,-36.8261662378353,-73.0611551273614,,,0,,
35832,,Arturo Prat - Martínez De Rosas,,-36.8251184971432,-73.061796175316,,,0,,
35833,,Arturo Prat - Gral. Cruz,,-36.8230251198027,-73.0631560552865,,,0,,
35834,,21 De Mayo - Argomedo / Oriente,,-36.8158599682595,-73.0671764351428,,,0,,
35835,,Laguna Redonda / 21 De Mayo,,-36.8138114318464,-73.0683193076402,,,0,,
35836,,21 De Mayo - Magallanes,,-36.812514426572,-73.0698401201516,,,0,,
35837,,Plazoleta Juan Antonio Ríos,,-36.8109768885436,-73.0728549230844,,,0,,
35838,,21 De Mayo - Cuarto Centenario / Norte,,-36.8093598634203,-73.0760038364679,,,0,,
35839,,21 De Mayo - Pedro De Ona,,-36.8080391601931,-73.0776721704751,,,0,,
35840,,Acceso A Vega Monumental / Poniente,,-36.8103090376857,-73.0816391576082,,,0,,
35862,,Tucapel - Pje Dieciocho,,-36.854023433553,-73.1399468926247,,,0,,
37471,,Domingo Santa Maria 540,,-36.7269408984045,-72.9828373063356,,,0,,
37474,,Camilo Henríquez - Pedro Aguirre Cerda,,-36.7128284729477,-72.9743400681764,,,0,,
37475,,Los Olivos - Carlos Condell / Poniente,,-36.7284822722565,-72.9872790444642,,,0,,
37476,,H Mery - Lago Rupanco,,-36.7296216221618,-72.9891163576394,,,0,,
37492,,Pedro Aguirre Cerda - Carlos Duarte / Norte,,-36.7203257530626,-72.9761961568147,,,0,,
37494,,Cristobal Colon - Acuenta,,-36.7973604612391,-73.0858561006244,,,0,,
37497,,Cristobal Colon - Cañete,,-36.7949742150284,-73.0865695682223,,,0,,
37508,,Los Olivos - H Mery / Poniente,,-36.7299247293839,-72.9878181684762,,,0,,
37515,,Cristobal Colon - Patria Nva,,-36.7915976889848,-73.0867626874351,,,0,,
37517,,Camino Viejo - V Ortaly / Poniente,,-36.7273536542684,-72.9869062174112,,,0,,
37518,,Cristobal Colon 8994,,-36.8009106971813,-73.0842575040924,,,0,,
37521,,Colon - San Miguel,,-36.7804725734986,-73.086700996505,,,0,,
37522,,Lientur - Maipu,,-36.8186435149582,-73.0373255730956,,,0,,
37526,,Tolten,,-36.7310318129722,-72.9895562399179,,,0,,
37536,,Veintiuno De Mayo - Pto Saavedra,,-36.8026567601112,-73.0823424069325,,,0,,
37540,,Cristobal Colon - Maxiahorro,,-36.7992462089876,-73.0852499214689,,,0,,
37541,,Pedro Aguirre Cerda 643,,-36.7188508656056,-72.9749167431146,,,0,,
37545,,Las Heras - Lientur,,-36.8164418800303,-73.038393901661,,,0,,
37555,,Camilo Henriquez - David Quiroga,,-36.7131574483922,-72.9757482279092,,,0,,
37560,,* Domingo Santa Maria - Anibal Pinto,,-36.7261669751801,-72.9835936892778,,,0,,
37564,,Anibal Pinto - Williams Rebolledo / Norte,,-36.7266893742121,-72.9851869214326,,,0,,
37567,,Tolten - Bilbao,,-36.7328367914552,-72.9885699976876,,,0,,
37574,,Crsitobal Colon - Mafil,,-36.793786433805,-73.0867358651813,,,0,,
37655,,Balmaceda,,-36.7111986261139,-72.9744098056108,,,0,,
37656,,Pedro Aguirre Cerda - Fresia / Poniente,,-36.7148668079282,-72.9743803013116,,,0,,
37657,,Pedro Aguirre Cerda - Arturo Prat / Poniente,,-36.7163202711498,-72.9745868314058,,,0,,
37829,,Rucamanque - Lonconao / Norte,,-36.7177838889504,-73.1340393036953,,,0,,
37830,,Los Lobos - Rucamanque / Norte,,-36.7176097360119,-73.1356352167495,,,0,,
37831,,Los Lobos - Las Almejas,,-36.7191340973183,-73.1381350368611,,,0,,
37832,,Los Lobos - El Caiquen,,-36.7199403410636,-73.1406133979908,,,0,,
37833,,Los Lobos - Las Anchoas,,-36.7212023641465,-73.14243998233,,,0,,
37834,,Los Cormoranes - Los Pinguinos,,-36.7232248597089,-73.1416731298668,,,0,,
37855,,Los Cormoranes - Las Fardelas,,-36.7240934062877,-73.1425528944237,,,0,,
37856,,Los Lobos - Los Cernicalos,,-36.7212426449042,-73.1423168600304,,,0,,
37857,,Los Lobos - El Queltelche,,-36.7201187884881,-73.1408574763918,,,0,,
37858,,Los Lobos - El Jurel,,-36.7190760474468,-73.1375234945153,,,0,,
37859,,Los Lobos - Rucamanque / Sur,,-36.7176613371473,-73.1354528265365,,,0,,
37860,,Rucamanque - Lonconao / Sur,,-36.717844089829,-73.1341197699658,,,0,,
37861,,Rucamanque - Los Araucanos,,-36.7182353945209,-73.1328215794929,,,0,,
37949,,Cristobal Colon 8401,,-36.7910478080998,-73.0869477596934,,,0,,
37950,,Cristobal Colon 8526,,-36.7933095978257,-73.0869236196486,,,0,,
37951,,Cristobal Colon - Pto Varas,,-36.7952255153861,-73.0866661277469,,,0,,
37952,,Crsitobal Colon - Los Escritores,,-36.79679343917,-73.0862477033043,,,0,,
37953,,Cristobal Colon - Av Los Copihues,,-36.7987522248855,-73.085617384022,,,0,,
37954,,Sagrados Corazones,,-36.80022128025,-73.0850514379199,,,0,,
37955,,Cristobal Colon - Pto Saavedra,,-36.802386155179,-73.0829459039251,,,0,,
37963,,Las Heras - Arturo Prat,,-36.8261791198036,-73.0618149507791,,,0,,
38068,,Ruta 150 / Oriente,,-36.751427240013,-72.9997271765023,,,0,,
38069,,Ruta 150 / Norte,,-36.7487644710228,-73.0004647839814,,,0,,
38070,,Bernardo Ohiggins 27,,-36.7412549217664,-72.9988500941545,,,0,,
38071,,Talcahuano - Las Heras,,-36.7401630314386,-72.9985094536096,,,0,,
38075,,Tolten - Cochrane,,-36.7338671639696,-72.9879120457917,,,0,,
38076,,Camino Viejo - Tolten,,-36.7322141176245,-72.988671110943,,,0,,
38077,,Camino Viejo 176,,-36.7310791055079,-72.9878154862672,,,0,,
38078,,Los Olivos - H Mery / Oriente,,-36.7300988542683,-72.9877162445337,,,0,,
38079,,Los Olivos - Carlos Condell / Oriente,,-36.7285209674363,-72.9871717561036,,,0,,
38080,,Camino Viejo - V Ortaly / Oriente,,-36.7273944997801,-72.9867962468415,,,0,,
38081,,Anibal Pinto - Williams Rebolledo / Sur,,-36.726799013064,-72.9851493705064,,,0,,
38082,,Ruta 150 - Los Mañios / Oriente,,-36.7249716784308,-72.979135857895,,,0,,
38083,,Pedro Aguirre Cerda - Carlos Duarte / Sur,,-36.7204784001473,-72.9760030377656,,,0,,
38084,,Pedro Aguirre Cerda - Arturo Prat / Oriente,,-36.7163933736033,-72.9743347037584,,,0,,
38085,,Pedro Aguirre Cerda - Fresia / Oriente,,-36.7148302559839,-72.9741764534265,,,0,,
38086,,Camilo Henriquez 43,,-36.7131015441676,-72.9767540562898,,,0,,
38087,,Balmaceda - Malaquias Concha,,-36.7121898695346,-72.9765153396875,,,0,,
38088,,Balmaceda - David Quiroga,,-36.7119554986003,-72.9758286941797,,,0,,
38089,,Balmaceda - Manuel Rodriguez,,-36.7115383595726,-72.974989162758,,,0,,
38090,,Balmaceda,,-36.7112867849405,-72.9743642080575,,,0,,
38108,,Pedro Aguirre Cerda - Rio Bio Bio / Norte,,-36.7040273194127,-72.9748926032335,,,0,,
38121,,Rio Bio Bio 1 / Norte,,-36.7056809724366,-72.9741281736642,,,0,,
38124,,Rio Bio Bio 2 / Oriente,,-36.7051949870733,-72.9731384385377,,,0,,
38127,,Rio Bio Bio 2 / Poniente,,-36.705151979371,-72.9732162225991,,,0,,
38146,,Rio Ñuble,,-36.7037649680685,-72.9714620579034,,,0,,
38149,,Pedro Aguirre Cerda - Malaquías Concha,,-36.7093257647028,-72.9759976733476,,,0,,
38151,,Pedro Aguirre Cerda - Gral Amengual,,-36.7095708949695,-72.9736426938325,,,0,,
38156,,Pedro Aguirre Cerda - Stgo Aldea,,-36.7107298774833,-72.9737794864923,,,0,,
38180,,Terminal Lirquen,,-36.7133631455196,-72.9774227330927,,,0,,
38194,,Rio Bio Bio 1 / Sur,,-36.7057691375935,-72.9741898644716,,,0,,
38204,,Rio Laja,,-36.7046079298592,-72.9714003670961,,,0,,
38210,,Gran Bretaña 1200 / Oriente,,-36.7376347198625,-73.1142338716745,,,0,,
38217,,Pedro Aguirre Cerda - Rio Bio Bio / Sur,,-36.7040918319011,-72.9748201835901,,,0,,
38260,,Lientur - Freire,,-36.8193749915688,-73.0367926228791,,,0,,
38744,,Desiderio Garcia - Carlos Dittborn / Norte,,-36.7448136366807,-73.1006565299685,,,0,,
38745,,Colegio Espiritu Santo / Poniente,,-36.7462450407866,-73.1021853891889,,,0,,
38746,,Alto Horno - Taltal,,-36.7476850149739,-73.1037357059176,,,0,,
38747,,Alto Horno - Gabriela Mistral,,-36.7467952420195,-73.1045966950114,,,0,,
38748,,Alto Horno - Eudocio Milas,,-36.7456668942943,-73.1051089969333,,,0,,
38749,,Alto Horno - Almirante Navarrete,,-36.7447942921496,-73.1055301037486,,,0,,
38750,,Alto Horno - Victor Domingo Silva,,-36.7434832236399,-73.1061067786868,,,0,,
38751,,Alto Horno - Capitan Enos,,-36.7421807290805,-73.1070240941699,,,0,,
38752,,Alto Horno - Daniel Peine,,-36.7411296890785,-73.1077161040957,,,0,,
38753,,Alto Horno - Haiti,,-36.7401560154339,-73.1083839741405,,,0,,
38754,,Alto Horno - Nicaragua / Oriente,,-36.739109247626,-73.1090598908122,,,0,,
38755,,Alto Horno - Gran Bretaña / Oriente,,-36.7369554822846,-73.1104492750819,,,0,,
38756,,Gran Bretaña 1200 / Poniente,,-36.7378109777823,-73.1147622668504,,,0,,
38757,,Juan Antonio Rios - Gran Bretaña / Oriente,,-36.7392999793272,-73.1206714332802,,,0,,
38758,,Juan Antonio Rios - Isla Sta Maria,,-36.7341524900099,-73.1194024884462,,,0,,
38759,,Juan Antonio Rios - Isla Navarino,,-36.7320867210799,-73.1185844146967,,,0,,
38760,,Juan Antonio Rios - Alto Horno / Oriente,,-36.7305948620905,-73.1180372447125,,,0,,
38761,,Juan Antonio Rios - La Marina,,-36.7288880028008,-73.117374738431,,,0,,
38762,,Juan Antonio Rios - Ignacio Diaz / Oriente,,-36.7270456694671,-73.1166612714878,,,0,,
38764,,Lobos Viejos,,-36.7227503028886,-73.1430622548214,,,0,,
38777,,Ignacio Diaz - Juan Macaya,,-36.725334431118,-73.1178333964999,,,0,,
38778,,Juan Antonio Rios - Igancio Diaz / Poniente,,-36.7269467797157,-73.1167658776394,,,0,,
38779,,Juan Antonio Ríos / Poniente,,-36.7288692231767,-73.1175029743463,,,0,,
38780,,Juan Antonio Rios - Alto Horno / Poniente,,-36.7307797337981,-73.1182598680607,,,0,,
38781,,Juan Antonio Rios / Poniente,,-36.7328046952816,-73.119032344257,,,0,,
38782,,Juan A. Ríos - Sta María / Poniente,,-36.7341337116734,-73.1195360887796,,,0,,
38783,,Juan Antonio Rios - Gran Bretaña / Poniente,,-36.7394375427153,-73.1208538234932,,,0,,
38784,,Alto Horno - Gran Bretaña / Poniente,,-36.7372048233595,-73.110465368336,,,0,,
38785,,Alto Horno - Nicaragua / Poniente,,-36.7392726034783,-73.1092154589351,,,0,,
38786,,Hospital Las Higueras,,-36.7405278617528,-73.1084376183207,,,0,,
38787,,Alto Nte,,-36.742376319608,-73.1071394291575,,,0,,
38788,,Alto Horno - Los Aromos,,-36.7438765468594,-73.1061657874488,,,0,,
38818,,Alto Horno - Los Tilos,,-36.7450242643371,-73.1056561675723,,,0,,
38819,,Alto Horno - Los Castaños,,-36.7458667744292,-73.1052752938922,,,0,,
38820,,Alto Horno - Los Olmos,,-36.7468231829233,-73.1048354116956,,,0,,
38821,,Alto Horno - Desiderio Garcia,,-36.7479364703815,-73.1036069598849,,,0,,
38822,,Colegio Espiritu Santo / Oriente,,-36.7464513671048,-73.1020781008283,,,0,,
38823,,Desiderio Garcia - Carlos Dittborn / Sur,,-36.7449898760165,-73.1005331483539,,,0,,
35954,,Calle Nueva,,-36.8392826851595,-73.098223766392,,,0,,
35955,,Los Canelos - Madreselvas / Poniente,,-36.8405019594736,-73.1005036441366,,,0,,
35956,,Los Canelos - Cangrejeras / Poniente,,-36.8419616284431,-73.0996587482559,,,0,,
35957,,Forestal Mininco / Poniente,,-36.8434663463275,-73.0988138524776,,,0,,
35958,,Av. Michimalongo - Central,,-36.8436128759132,-73.0942965019494,,,0,,
35959,,Av. Michimalongo - Colmenares,,-36.8423593065585,-73.0922875273973,,,0,,
35960,,Llacolén - Av Michimalongo,,-36.841097130351,-73.0905440915376,,,0,,
36001,,O`Higgins - San Carlos,,-36.7837400322063,-73.0821492879295,,,0,,
36002,,Las Golondrinas - Dos Pte,,-36.7816627093677,-73.0905419197734,,,0,,
36003,,Las Golondrinas - Cinco Pte,,-36.781770121443,-73.0911132302936,,,0,,
36026,,Paicaví - Freire,,-36.8223208733215,-73.0430019367486,,,,,
36051,,Freire - Lautaro,,-36.8209896580013,-73.0403250921518,,,0,,
36052,,Freire - Janequeo,,-36.821550059531,-73.0416018236428,,,0,,
36053,,Freire - Paicaví,,-36.8220396023366,-73.0427954066545,,,0,,
36054,,Freire - Ongolmo,,-36.8225935548926,-73.0441150534898,,,0,,
36055,,Freire - Orompello,,-36.8231195913986,-73.0453864205629,,,0,,
36056,,Freire - Castellón,,-36.8241630653585,-73.0478647816926,,,0,,
36090,,Freire - Anibal Pinto / Oriente,,-36.8252365833893,-73.0504316557199,,,0,,
36091,,Freire - Anibal Pinto / Poniente,,-36.8253933157619,-73.0508232582361,,,0,,
36092,,Freire - Rengo,,-36.8262027367402,-73.0528268683702,,,0,,
36093,,Freire - Lincoyán,,-36.826614958457,-73.0537495482713,,,0,,
36094,,Freire - Angol,,-36.827143114286,-73.0550423730165,,,0,,
36095,,Freire - Salas,,-36.8278129652153,-73.0566382873803,,,0,,
36096,,Freire - Serrano,,-36.8283260842361,-73.0579472053796,,,0,,
36097,,Freire - Arturo Prat,,-36.828791967563,-73.0590603221208,,,0,,
36115,,Carampangue - Chonchi,,-36.7926458887517,-73.0890988916508,,,0,,
36116,,Carampangue - Quemchi,,-36.7926544804916,-73.0920680970303,,,0,,
36119,,Bremen - La Reconquista,,-36.7955004408044,-73.0996077862437,,,0,,
36120,,Bremen - Atenas / Norte,,-36.7949140746496,-73.1007155388943,,,0,,
36121,,Bremen - Frankfort / Norte,,-36.7941880901133,-73.1021344272995,,,0,,
36122,,Bremen - Valencia,,-36.7925019769641,-73.1053745356462,,,0,,
36123,,Bremen - Bulgaria / Norte,,-36.7920229847751,-73.106326719867,,,0,,
36124,,Bremen - Gran Bretaña / Norte,,-36.7919091434663,-73.1080916133578,,,0,,
36147,,Madrid - La Pera,,-36.7910220323364,-73.1080326047594,,,0,,
36148,,Granada - Zaragoza,,-36.7884379683144,-73.1054013577773,,,0,,
36149,,Bulgaria - Tres Pte,,-36.7879997641011,-73.104011973569,,,0,,
36157,,Belgica - Londres,,-36.7829731262705,-73.1103071180041,,,0,,
36158,,Gran Bretaña - Yugoslavia / Oriente,,-36.7816584127504,-73.1115194764789,,,0,,
36159,,Gran Bretaña - Dinamarca / Oriente,,-36.7796519274658,-73.1121176094166,,,0,,
36161,,Gran Bretaña - Yugoslavia / Poniente,,-36.7809860097004,-73.1118842569049,,,0,,
36162,,Gran Bretaña - Finlandia / Poniente,,-36.7847082894369,-73.1107687169424,,,0,,
36169,,Bulgaria - Paris,,-36.7828866306311,-73.1041865760199,,,0,,
36170,,Bulgaria - Finlandia,,-36.7845155228578,-73.104151448315,,,0,,
36171,,Bulgaria - Grecia / Poniente,,-36.7865132884964,-73.1041460842243,,,0,,
36172,,Bulgaria - Granada,,-36.7880727982888,-73.1041541306467,,,0,,
36173,,Granada - Madrid,,-36.7883434539204,-73.1056561676746,,,0,,
36174,,Madrid - Baracaldo,,-36.790665466983,-73.1076329556163,,,0,,
36176,,Bremen - Gran Bretaña / Sur,,-36.7920423166081,-73.1081452575381,,,0,,
36177,,Bremen - Bulgaria / Sur,,-36.7920036531995,-73.1066459027397,,,0,,
36178,,Bremen - Alemania,,-36.792987409673,-73.1047281232532,,,0,,
36179,,Bremen - Frankfort / Sur,,-36.7941322454287,-73.1025233476066,,,0,,
36180,,Bremen - Atenas / Sur,,-36.7950429463077,-73.1007477254025,,,0,,
36181,,Bremen - Palermo,,-36.7956486426611,-73.0995782819446,,,0,,
36184,,Carampangue - Corral,,-36.7929208236902,-73.093462845718,,,0,,
36197,,Carampangue - Pto Octay,,-36.7927532854319,-73.0917596429936,,,0,,
36198,,Purranque - Patria Nva,,-36.7920358727517,-73.0908906072727,,,0,,
36204,,O`Higgins - San Carlos / Sur,,-36.7841068031993,-73.0822300130239,,,0,,
36307,,Belgica - Bristol,,-36.7829344586133,-73.1096660702133,,,0,,
36310,,Grecia - Cadiz,,-36.7866593595868,-73.1021451559718,,,0,,
36324,,Carampangue - Chaiten,,-36.7927382499057,-73.0885007590405,,,0,,
36565,,Gracia - Venecia,,-36.7867732089584,-73.1024482459179,,,0,,
36913,,Las Golondrinas - Seis Pte / Norte,,-36.7810891263372,-73.0929183569606,,,0,,
36916,,Finlandia - Suecia,,-36.7847238945209,-73.0969094839747,,,0,,
36917,,Finlandia - Altonia,,-36.7847647092346,-73.0995112268829,,,0,,
37001,,Centro Educativo Evangelico,,-36.784614338163,-73.0983793348423,,,0,,
37038,,Gran Bretaña - John Dalton / Oriente,,-36.767285318747,-73.1156903111696,,,0,,
37056,,Las Golondrinas - Seis Pte / Sur,,-36.7812867659186,-73.0931007471736,,,0,,
37075,,Manuel Montt - Desiderio Sanhueza,,-36.8267394833305,-73.0630058515817,,,0,,
37076,,Plaza Bicentenario - Av Padre Hurtado,,-36.8307177316755,-73.0606267321855,,,0,,
37101,,Monaco - Gran Bretaña,,-36.788957794873,-73.1101220455821,,,0,,
37300,,Santa Sabina,,-36.7947041503356,-73.0456611289265,,,,,
37301,,Calle Nueve 2231,,-36.778926366404,-73.0406158931146,,,0,,
37302,,Calle Nueve,,-36.7796653848215,-73.040876067389,,,0,,
37303,,Calle 101 - Calle C,,-36.7804688444347,-73.0416995055566,,,0,,
37304,,Calle 101 - Condominio 1975,,-36.7814978619587,-73.0420696504007,,,0,,
37305,,Condominio 1873,,-36.7828899137821,-73.042319095839,,,0,,
37306,,Condominio 1855,,-36.7834355568271,-73.0425309903512,,,0,,
37307,,Condominio 1777,,-36.78406712306,-73.0428018934617,,,0,,
37308,,Lleuque 1667,,-36.7854226098839,-73.043247140813,,,0,,
37309,,Lleuque - Bartolome De Las Casas,,-36.7869542166974,-73.0431505806337,,,0,,
37310,,Los Lleuques - Abdon Cifuentes / Poniente,,-36.7887886675946,-73.0430030597927,,,0,,
37311,,Abdon Cifuentes - Gongora Y Marmolejo / Norte,,-36.7889905833942,-73.0432498230221,,,0,,
37312,,Abdon Cifuentes - Sady Zañartu,,-36.7902665070996,-73.0452668442013,,,0,,
37313,,Abdon Cifuentes - Jeronimo De Quiroga / Poniente,,-36.7911536267155,-73.045937396455,,,0,,
37314,,Abdon Cifuentes - Jose Toribio Medina,,-36.7922039802433,-73.0457818283321,,,0,,
37315,,Abdon Cifuentes - Abate Molina,,-36.7938278113437,-73.0455431117298,,,0,,
37316,,Abdon Cifuentes - J Gonzalez Vera,,-36.7957480116399,-73.0458917989017,,,0,,
37317,,Abdon Cifuentes - Roxane,,-36.7963085979509,-73.047570861745,,,0,,
37318,,Abdon Cifuentes - Hernan Del Solar,,-36.7967424588695,-73.0487134827854,,,0,,
37319,,Hernana Del Solar - Luis Durand,,-36.7984864690555,-73.0488905085804,,,0,,
37320,,Abdon Cifuentes - Carlos Silva Vildosola,,-36.8000307010843,-73.0487724920386,,,0,,
37321,,Addon Cifuentes - Sta Sabina,,-36.801957188907,-73.0483299275511,,,0,,
37322,,Bellavista - Ainavillo,,-36.8026551797815,-73.0487966319197,,,0,,
37323,,Ainavillo - Ventus,,-36.8040704709805,-73.0487215300673,,,0,,
37324,,Ejercito - Pje Once,,-36.8079876200931,-73.0464470168226,,,0,,
37325,,Kingston College,,-36.8053525862535,-73.0414554251911,,,0,,
37364,,Lientur - Jm Garcia,,-36.803857856825,-73.0408277882816,,,0,,
37365,,Jm Garcia - Lientur,,-36.8038557092043,-73.0404844655277,,,0,,
37366,,Pasarela La Polvora / Sur,,-36.8070470071739,-73.0349778907475,,,0,,
37367,,Gral Bonilla - Caamilo Henríquez,,-36.8081937802849,-73.0332467425615,,,0,,
37368,,Baquedano - Sta María,,-36.8117993463859,-73.0331877339631,,,0,,
37369,,Baquedano - Lorenzo Arenas,,-36.8128773325797,-73.0314791668206,,,0,,
37398,,Tribunales De Concepción - Tucapel,,-36.8251957899795,-73.0458558071405,,,0,,
37399,,Tucapel - Freire,,-36.8238538893723,-73.0466926563531,,,0,,
37425,,Cañete - Chaiten,,-36.7947400968594,-73.0881172024965,,,0,,
37426,,Liceo Simon Bolivar / Norte,,-36.7947358011065,-73.0902495586633,,,0,,
37427,,Cañete - Quemchi / Norte,,-36.7947594277445,-73.0927306023295,,,0,,
37433,,Ejercito De Salvacion / Oriente,,-36.7910370681994,-73.1029149499591,,,0,,
37434,,Granada - Venecia,,-36.7883391578088,-73.1028934924507,,,0,,
37440,,Alemania,,-36.7796497792319,-73.1056186166461,,,0,,
37441,,Estadio Municipal Hualpen,,-36.7793763772211,-73.10112349267,,,0,,
37443,,Dalcahue - Aisen,,-36.7794494191031,-73.0989509040228,,,0,,
37577,,Alemania - Portugal,,-36.7793576099521,-73.1056159344371,,,0,,
37583,,Granada - Alemania,,-36.7884401161053,-73.102005681103,,,0,,
37584,,Ejercitos De Salvacion / Poniente,,-36.790937693372,-73.1030707770697,,,0,,
37590,,Corral - Carampangue,,-36.7932838225611,-73.0937793457269,,,0,,
37591,,Cañete - Quemchi / Sur,,-36.7948925959315,-73.0925643053706,,,0,,
37592,,Liceo Simon Bolivar / Sur,,-36.7948625257159,-73.090010842061,,,0,,
37593,,Cañete - Coihaique,,-36.7948646735889,-73.0875888073206,,,0,,
37620,,Plaza Condell / Janequeo,,-36.8183464828233,-73.0437583196908,,,0,,
37621,,Janequeo - Manuel Bulnes,,-36.81666519555,-73.0448580253869,,,0,,
37622,,Manuel Bulnes - Lautaro,,-36.8161477037839,-73.0438709724694,,,0,,
37623,,Manuel Bulnes - Lientur,,-36.8145823235757,-73.0400810111314,,,0,,
37624,,Camilo Henríquez - Baquedano,,-36.8106440375581,-73.0352583993226,,,0,,
37625,,Camilo Henríquez - Diego De Oro,,-36.8096862776174,-73.0343625415117,,,0,,
37626,,Rodoviario Camilo Henríquez,,-36.8088272899006,-73.033520327881,,,0,,
37627,,Pasarela La Polvora / Norte,,-36.8066883686118,-73.0351012723622,,,0,,
37628,,Lientur - Pje Tres,,-36.8041306041699,-73.0411228312732,,,0,,
37629,,Lientur - Juan De Dios Rivera,,-36.8053268153036,-73.0415922178508,,,0,,
37630,,Juan De Dios Rivera - Lientur,,-36.8055458681009,-73.0420347823383,,,0,,
37631,,Juan De Dios Rivera - Pje 31,,-36.8057090835033,-73.0434053911449,,,0,,
37632,,Pelantaro - Montriou,,-36.8050648101544,-73.044320024419,,,0,,
37633,,Manuel Gutierrez - Carriel Sur,,-36.8039416139871,-73.0451568736316,,,0,,
37634,,Irene Frei De Cid,,-36.8046417343734,-73.0475601335638,,,0,,
37635,,Manuel Gutierrez - Galvarino,,-36.8051034667082,-73.0487751742476,,,0,,
37636,,Sta Sabina - Bellavista,,-36.8029472602286,-73.0480348845595,,,0,,
37637,,Hernan Del Solar - Acevedo Hernandez,,-36.7983361249139,-73.0487403048755,,,0,,
37638,,Hernan Del Solar - Abdon Cifuentes,,-36.7971870563704,-73.0488422288181,,,0,,
37639,,Abdon Cifuentes - Ruiz Aldea,,-36.7964073981781,-73.0474072469951,,,0,,
37640,,Abdon Cifuentes - Angel Cruchaga,,-36.7957157939111,-73.0457389129879,,,0,,
37641,,Abdon Cifuentes - P Marino De La V,,-36.7928011073212,-73.0455350651027,,,0,,
37642,,Abdon Cifuentes - Jeronimo De Quiroga / Oriente,,-36.7911450348072,-73.0457952393772,,,0,,
37643,,Abdon Cifuentes - Benjamin Subercasseaux,,-36.7898025373016,-73.0446257962467,,,0,,
37644,,Abdon Cifuentes - Gongora Y Marmolejo / Sur,,-36.7890893930597,-73.0431452168705,,,0,,
37645,,Los Lleuques - Abdon Cifuentes / Oriente,,-36.7888208882366,-73.04287431376,,,0,,
37646,,Los Lleuques - Coihue,,-36.7875857539308,-73.0430030591378,,,0,,
37647,,Lleuque - Av Los Presidentes,,-36.7855149797457,-73.0430540211091,,,0,,
37648,,Condominio 1710,,-36.7844731271754,-73.0427938468347,,,0,,
37649,,Condominio 1842,,-36.7835580037484,-73.0424532062898,,,0,,
37650,,Condominio 1876,,-36.7830896969226,-73.0422681338678,,,0,,
37651,,Calle 101 - Calle 105,,-36.7821272959303,-73.0421152479539,,,0,,
37652,,Calle 101 - Calle 102,,-36.7812099962353,-73.0418014294992,,,0,,
37653,,Calle Nueve 2152,,-36.7798393968426,-73.0409404404054,,,0,,
37654,,Calle Nueve - Cost,,-36.7788468785336,-73.0404791004548,,,0,,
37778,,Abdon Cifuentes - Maqui,,-36.789016359841,-73.0424961222889,,,0,,
37779,,Abdon Cifuentes - Canelo / Sur,,-36.7887005977706,-73.0411255136255,,,0,,
37780,,Abdon Cifuentes - Ulmo,,-36.7891087253707,-73.0385157242745,,,0,,
37781,,Abdon Cifuentes - Lingue / Poniente,,-36.7911965862424,-73.0378263965576,,,0,,
37782,,Campos Deportivos - Andalien,,-36.7924252185164,-73.0369519964188,,,0,,
37783,,Andalien 219,,-36.7936796059643,-73.0358093753784,,,0,,
37784,,Andalien - Los Notros,,-36.7952540049767,-73.0345299616374,,,0,,
37785,,Andalien 436,,-36.7968348150845,-73.0334892645396,,,0,,
37786,,Andalien - Dario Silva / Poniente,,-36.797464123073,-73.0331218018637,,,0,,
37787,,Andalien - Parque Central / Poniente,,-36.7993305385427,-73.0319818631142,,,0,,
37788,,Andailen - Pje Sur,,-36.8004323251749,-73.0312764421433,,,0,,
37789,,Bellavista,,-36.8023502122435,-73.0310189500369,,,0,,
37790,,Camilo Henriquez - Senda Uno / Poniente,,-36.8034197409462,-73.0300318971194,,,0,,
37791,,Camilo Henriquez - Sta Sofia,,-36.8042551656264,-73.0305522456786,,,0,,
37792,,Camilo Henriquez - Calle Int,,-36.8070856627271,-73.0322554484337,,,0,,
37794,,Camilo Henríquez - Fioretti,,-36.8126561533833,-73.0373237002641,,,0,,
37795,,Camilo Henríquez - Pelantaro,,-36.813976776966,-73.0389088857919,,,0,,
37796,,Lientur - Martínez De Rosas,,-36.8154047426832,-73.0394292343408,,,0,,
37836,,Ramuntcho - Augusto Winter,,-36.7959128283928,-73.0880984276882,,,0,,
37837,,Ramuntcho - Calbuco,,-36.795846245215,-73.0905150976832,,,0,,
37838,,Ramuntcho 405,,-36.7958333578795,-73.0924006906207,,,0,,
37839,,Corral - Ramuntcho / Oriente,,-36.7957216700819,-73.0933823791202,,,0,,
37841,,La Reconquista - Badalona,,-36.7906461350648,-73.094361385738,,,0,,
37842,,La Reconquista - Lanco,,-36.7894282143871,-73.0943747967831,,,0,,
37843,,La Reconquista - Lebu,,-36.7880599100389,-73.0943855256191,,,0,,
37853,,Quillota - Atacama,,-36.7776174610244,-73.094305059185,,,0,,
37905,,Quillota Baker,,-36.7778688183106,-73.0945169536972,,,0,,
37912,,La Reconquista - Quileco,,-36.788480929364,-73.0945276826969,,,0,,
37913,,La Reconquista - Patria Vieja,,-36.7895506517326,-73.0945142716519,,,0,,
37914,,Liceo Pedro Del Rio Zañartu,,-36.790334675711,-73.0945142716519,,,0,,
37917,,Corral - Ramuntcho / Poniente,,-36.7956330408508,-73.0935596639029,,,0,,
37918,,Ramuntcho - Celia Castro,,-36.7959235676096,-73.0923175424687,,,0,,
37919,,Ramuntcho - Julio Barnechea,,-36.7959536374086,-73.0902307835277,,,0,,
37920,,Ramuntcho - Catorce Nte,,-36.7960288118545,-73.0873903245083,,,0,,
37986,,Las Heras - Serrano,,-36.8253997568114,-73.05982475169,,,0,,
37987,,Las Heras - Angol,,-36.8245194750148,-73.0577728617936,,,0,,
37988,,Las Heras - Lincoyán,,-36.8239827128517,-73.056396888569,,,0,,
37989,,Rengo - Maipú,,-36.825210819133,-73.053870247677,,,0,,
37990,,Rengo - Barros Arana,,-36.8271366733833,-73.0526337493211,,,0,,
37991,,Chacabuco - Caupolicán,,-36.831005411339,-73.0487257707864,,,0,,
37992,,Chacabuco - Colo Colo / Sur,,-36.8299985277841,-73.0463412869722,,,0,,
37993,,Chacabuco - Tucapel / Sur,,-36.8289358111506,-73.0437422264367,,,0,,
37994,,Chacabuco - Orompello / Sur,,-36.8284055207643,-73.0424896348268,,,0,,
37995,,Chacabuco - Ongolmo / Sur,,-36.8278773736495,-73.0412048567086,,,0,,
37996,,Chacabuco - Paicaví / Sur,,-36.8273556637738,-73.0398959387094,,,0,,
37997,,Pinacoteca U De Concepción,,-36.8272526095504,-73.0396330822259,,,0,,
37998,,Univ. De Concepción,,-36.8267201605186,-73.0382732022554,,,0,,
37999,,Hospital Traumatológico - Roosevelt,,-36.8248630008232,-73.036768482998,,,0,,
38005,,Pelantaro - Diagonal Ote,,-36.8149516617092,-73.0379915703088,,,0,,
38006,,Pelantaro - Pje Uno,,-36.8141657423796,-73.0384743679315,,,0,,
38010,,Camilo Henriquez - Andalien,,-36.8067935980646,-73.0319121256798,,,0,,
38011,,Camilo Henriquez - Libertad,,-36.8051614515023,-73.0309197083136,,,0,,
38012,,Camilo Henriquez - Senda Uno / Oriente,,-36.8035700751087,-73.029959477476,,,0,,
38013,,Camilo Henriquez - Bellavista,,-36.8017553072834,-73.0297019854106,,,0,,
38014,,Andailen - Vicuña Mackena,,-36.8003184961011,-73.0311342850655,,,0,,
38015,,Andalien - Parque Central / Oriente,,-36.7990899904254,-73.0319067612618,,,0,,
38016,,Andalien - Dario Silva / Oriente,,-36.7972729686334,-73.0329340472326,,,0,,
38017,,Andalien 630,,-36.795833925517,-73.0339103713652,,,0,,
38018,,Andalien - Pje Cinco,,-36.7948652409713,-73.0345147400931,,,0,,
38019,,Andalien - Campos Deportivos / Norte,,-36.7927259297078,-73.036804474923,,,0,,
38020,,Abdon Cifuentes - Lingue / Oriente,,-36.7910891873799,-73.0377325192421,,,0,,
38021,,Abdon Cifuentes - Pehuen,,-36.7890507284232,-73.0383762494057,,,0,,
38022,,Abdon Cifuentes - Canelo / Norte,,-36.7886920055872,-73.041388370109,,,0,,
38235,,Carlos Dittborn - Pasaje Dos,,-36.7453788940446,-73.0997687187846,,,0,,
38236,,Carlos Dittborn - Las Azaleas / Poniente,,-36.7476178221665,-73.1002759153989,,,0,,
38237,,Las Magnolias - Los Limoneros,,-36.7494193947204,-73.0999081937352,,,0,,
38238,,Las Magnolias - Los Manzanos,,-36.7498750134671,-73.0982827749085,,,0,,
38239,,Las Magnolias / Los Almendros,,-36.7504767674941,-73.0961316435241,,,0,,
38240,,Las Hortensias - El Tamarugo / Poniente,,-36.7523529235613,-73.0945518225781,,,0,,
38241,,Las Hortensias - Alto Horno / Poniente,,-36.7540829029112,-73.0935942736323,,,0,,
38242,,Colegio Los Condores,,-36.7553142791013,-73.0928647127803,,,0,,
38243,,Las Hortensias / Los Condores,,-36.7571686780572,-73.0920909157794,,,0,,
38404,,Lago Rupanco - Rio Loncomilla / Oriente,,-36.7623459903627,-73.1004454661161,,,0,,
38542,,Terminal,,-36.7388798255112,-73.1098476983607,,,0,,
38543,,Toribio Medina,,-36.7354664363114,-73.1093273498118,,,0,,
38574,,Portales - Hualpén,,-36.7333168690083,-73.1109205819666,,,0,,
38575,,Simpson - Echeverría,,-36.7346152148572,-73.1107006408274,,,0,,
38590,,21 De Mayo - Empalme Juan Pablo II,,-36.8071393509629,-73.0782837141305,,,0,,
38598,,Rio Loa - Los Nardos,,-36.7627279051394,-73.0903005212895,,,0,,
38599,,Rio Petrohue - Rio Maule,,-36.7635122037711,-73.0924033731571,,,0,,
38600,,Lago Lanalhue - Lago Llanquihue,,-36.7652569700157,-73.0931382980997,,,0,,
38601,,Lago Llanquihue - Lago Peñuelas,,-36.765274159636,-73.0942353217097,,,0,,
38602,,Lago Llanquihue - Lago Caburga,,-36.7649110280875,-73.0963515844996,,,0,,
38603,,Lago Llanquihue - Lago Palena,,-36.7643631047113,-73.0979609099086,,,0,,
38604,,Laguna Avendaño - Laguna Lo Galindo,,-36.7661766090297,-73.0994253960307,,,0,,
38605,,Laguna La Posada,,-36.7678396675287,-73.1003185716327,,,0,,
38606,,Lago Pirihueico - Laguna Lo Galindo,,-36.7660863650666,-73.100554606026,,,0,,
38607,,Lago Llanquihue - Lago Pirihueico,,-36.7637958379423,-73.0998143163379,,,0,,
38608,,Rio Mapocho - Rio Pilmaiquen,,-36.7617996295702,-73.0955496040451,,,0,,
38609,,Colegio Villa Independencia,,-36.7602868595657,-73.0942433682139,,,0,,
38610,,Rio Maule - Las Gardenias,,-36.7579059056706,-73.0950641241725,,,0,,
38611,,Rio Maule - Los Girasoles,,-36.7561566739807,-73.09425409705,,,0,,
38612,,Rio Maule - Alto Horno,,-36.7545341949089,-73.0935915914233,,,0,,
38613,,Las Hortensias - Alto Horno / Oriente,,-36.7540205814267,-73.0934387055095,,,0,,
38614,,Las Hortensias - El Tamarugo / Oriente,,-36.7523851595189,-73.0943694320376,,,0,,
38615,,Las Magnolias - El Cipres,,-36.7502317688319,-73.0966117587741,,,0,,
38616,,Las Magnolias - Los Cerezos,,-36.7496923358357,-73.098556360228,,,0,,
38617,,Las Magnolias - Los Naranjos,,-36.7492539102644,-73.1001522747556,,,0,,
38618,,Carlos Dittborn - Las Azaleas / Oriente,,-36.7477338787125,-73.1001632626203,,,0,,
38619,,Carlos Dittborn - El Romerillo,,-36.7452305949869,-73.0996962991719,,,0,,
38622,,Club Deportivo Huachipato / Poniente,,-36.7496407585855,-73.1047039835357,,,0,,
38623,,Iquique - Taltal,,-36.7530234286909,-73.1080111470874,,,0,,
38624,,Iquique Freirina,,-36.7525205524917,-73.1129571405108,,,0,,
38625,,Iquique - Parque Limari,,-36.7497825996129,-73.1102346984835,,,0,,
38763,,Transportes Cruz Del Sur,,-36.7109190974582,-73.1152753997594,,,0,,
38817,,Veintiuno De Mayo - Jorge Giacaman,,-36.8220825445386,-72.9936197865754,,,0,,
38824,,Jorge Giacaman - Pje 7,,-36.8232570044208,-72.9936305154115,,,0,,
38825,,Jorge Giacaman - Los Alamos / Poniente,,-36.8241158302192,-72.9934373963624,,,0,,
38826,,Jorge Giacaman - Julio Diestre,,-36.8263852310034,-72.9929492343217,,,0,,
38827,,Jorge Giacaman - Nonguen,,-36.8271044688612,-72.9927963484079,,,0,,
38828,,Nonguen - Chile,,-36.8275381552871,-72.993727074936,,,0,,
38829,,Chile - Julio Diestre / Oriente,,-36.8270765582644,-72.9940623510629,,,0,,
38830,,Chile - Concepcion / Oriente,,-36.8253761396272,-72.9946819413453,,,0,,
38831,,Chile - Veintiuno De Mayo / Oriente,,-36.8227953815714,-72.9956609476358,,,0,,
39081,,Galvez,,-36.7084457306072,-73.1148212761036,,,0,,
39103,,Los Lirios - Arturo Pérez Canto,,-36.8213611123473,-73.0183578003198,,,0,,
39104,,Los Lirios - Gral Gorostiaga,,-36.8228125582855,-73.0189827550203,,,0,,
39105,,Gral Gorostiaga - Cucha - Cucha,,-36.8241523301021,-73.0170032847673,,,0,,
39106,,Gral Gorostiaga - Sofanor Parra / Sur,,-36.8247921487515,-73.0160886514932,,,0,,
39107,,Gral Gorostiaga - Eloísa Urrutia / Sur,,-36.8258441879202,-73.0137256253511,,,0,,
39108,,E Cleret,,-36.8270643924531,-73.013148138416,,,0,,
39109,,Calle Cinco - Calle Uno,,-36.8288549442428,-73.010983595741,,,0,,
39110,,Calle Cuatro - Pje 21,,-36.826217765696,-73.0090773571283,,,0,,
39111,,Calle Cuatro - Calle Dos,,-36.8264990213236,-73.0104613769799,,,0,,
39112,,Calle Dos - Pje Nueve,,-36.8272654913359,-73.0104828346521,,,0,,
39113,,Calle Dos - Pje Seis,,-36.8283947861032,-73.01010732539,,,0,,
39114,,Calle Cinco - Quinta Agrícola,,-36.8288542282535,-73.0114725697786,,,0,,
39115,,Rafael De La Sota - Esteban Iturra,,-36.8283690229102,-73.012623237446,,,0,,
39116,,Rafael De La Sota - Pedro Nolasco Cruz,,-36.8278172591126,-73.0127814877778,,,0,,
39117,,Gral Gorostiaga - Eloísa Urrutia / Norte,,-36.8257862187916,-73.0135995615274,,,0,,
39118,,Gral Gorostiaga - Sofanor Parra / Norte,,-36.8247019732925,-73.0159116256982,,,0,,
39119,,Gral Gorostiaga - Tarpellanca,,-36.8239526540592,-73.0170837510377,,,0,,
39120,,Gral Gorostiaga - Los Lirios,,-36.8229542660292,-73.0189264286309,,,0,,
39121,,Los Lirios - Capellán Pradenas,,-36.8220353081151,-73.0185616482049,,,0,,
39247,,Calle Dos,,-36.7752075347755,-73.0226453114301,,,0,,
39333,,Las Rosas,,-36.7789048832039,-73.0217880941927,,,0,,
39334,,Las Rosas - Pje 10,,-36.7771625756289,-73.0220780242234,,,0,,
39335,,Las Rosas - Calle Tres,,-36.7745909346253,-73.0240065325052,,,0,,
39344,,Principal - Las Azucenas,,-36.7752311674351,-73.0214101541787,,,0,,
39393,,Las Hortensias - Las Amapolas,,-36.7576243982077,-73.091837427055,,,0,,
39394,,Las Hortensias - Los Pensamientos,,-36.7591630069483,-73.0909657087977,,,0,,
39395,,Las Hortensias - Rio Juncal,,-36.7610647365686,-73.0898606386836,,,0,,
39396,,Las Hortensias - Rio Diguillin,,-36.7633403031827,-73.0885624495204,,,0,,
39397,,Rio Llanquihue - Pasaje Tres,,-36.7652419290948,-73.0888735857661,,,0,,
39398,,Lago Llanquihue - Rio Tolten,,-36.7655921671794,-73.0905982464901,,,0,,
39139,,Urba Final Avenida Dos,,-36.7935453008843,-73.1170021700382,,,0,,
39194,,Ventus - Janequeo,,-36.8053096346656,-73.0519804140204,,,0,,
39195,,Ventus - Galvarino,,-36.8044269741993,-73.0498212357634,,,0,,
39213,,Calle C - Camino Del Valle,,-36.7805526271715,-73.0445319182763,,,0,,
39214,,Calle C / Ermita / Norte,,-36.7803592822562,-73.0479249126802,,,0,,
39215,,Calle C - Calle Uno,,-36.7805998891877,-73.0505937113048,,,0,,
39216,,Ramon Carrasco - Urba Antilhue,,-36.7844129785533,-73.0546259430412,,,0,,
39217,,Unimarc / Poniente,,-36.7874203518251,-73.0548405197624,,,0,,
39218,,Ramon Carrasco - Paso Hondo,,-36.7888187401942,-73.056392647195,,,0,,
39219,,Ramon Carrasco - Camila Melo,,-36.7892633836827,-73.0579644216778,,,0,,
39220,,Alonso Garcia De Ramon / Poniente,,-36.7904770109888,-73.0583989398656,,,0,,
39221,,Plazoleta Principal,,-36.7917249864533,-73.0574360268292,,,0,,
39222,,Calle Cuatro - Padre Alonso De Ovalle,,-36.7943583412937,-73.0556094422855,,,0,,
39223,,Calle Cuatro / Sur,,-36.7950585492869,-73.0534609927417,,,0,,
39224,,Calle Cuatro - Calle Sur / Sur,,-36.7951981605448,-73.0516478194477,,,0,,
39225,,Hernan Del Solar - Alvaro Bazan,,-36.7951229852837,-73.0494510902645,,,0,,
39231,,Trasera Calmar / Oriente,,-36.7895936121584,-73.1153469884157,,,0,,
39232,,Finlandia - Polonia,,-36.7866222745156,-73.1168922007782,,,0,,
39233,,Republica Del Peru,,-36.7856218189708,-73.1156313032261,,,0,,
39234,,Hungria - Camberra,,-36.7831643165221,-73.1163635456323,,,0,,
39235,,Yugoslavia - Hungria,,-36.7821503589799,-73.1163769566774,,,0,,
39336,,Magallanes - Juan Abate Nux,,-36.7883332810718,-73.0450871361973,,,0,,
39337,,Magallanes - Los Celtas,,-36.7870208076036,-73.0455323828937,,,0,,
39338,,Magallanes - Galicia,,-36.7858200143123,-73.0456638111355,,,0,,
39339,,Cantabria / Sur,,-36.7855278685547,-73.0449476613285,,,0,,
39340,,Gongora Y Marmolejo - Galicia,,-36.7859123836951,-73.0442824734928,,,0,,
39343,,Colegio Almondale Lomas,,-36.7757682713727,-73.0442744262109,,,0,,
39423,,Plaza Belgica / Poniente,,-36.7778844242628,-73.0485659606347,,,0,,
39424,,Garcia Hurtado De Mendoza 456 / Sur,,-36.7908679452486,-73.0539947526631,,,0,,
39425,,Garcia Hurtado De Mendoza - Cosme Churruca / Sur,,-36.789686544413,-73.0514681117711,,,0,,
39426,,Gobernador Juan Henriquez / Poniente,,-36.7887607430272,-73.0480545312821,,,0,,
39427,,Gobernador Juan Henriquez - Abdon Cifuentes,,-36.7903610191214,-73.0468600765198,,,0,,
39464,,Tucapel - Martinez Rosas,,-36.8198137311745,-73.0492050758403,,,0,,
39465,,Tucapel - Gral Cruz,,-36.8177459754989,-73.0505434982206,,,0,,
39466,,Tucapel - Manuel Rodriguez,,-36.8158041388533,-73.0517521127513,,,0,,
39492,,Tucapel - Av Argentina,,-36.8135408663348,-73.0532235838473,,,0,,
39493,,Tucapel - Ejército,,-36.8115695744578,-73.0545193422586,,,0,,
39494,,Janequeo - Montriou,,-36.8073354909655,-73.0508626810933,,,0,,
39514,,Ejército - Ongolmo,,-36.8104099672887,-73.0522314179689,,,0,,
39515,,Ejército - Paicaví,,-36.8095574300743,-73.0503565538675,,,0,,
39516,,Ventus - Ester Roa,,-36.8035249748909,-73.0475091715925,,,0,,
39517,,Ventus - Carriel Sur,,-36.8035034985874,-73.0449637545826,,,0,,
39518,,Manuel Gutierrez - Calle Siete,,-36.8028742402212,-73.0427106990101,,,0,,
39519,,Lientur - Las Torres / Oriente,,-36.802820548995,-73.0400472654583,,,0,,
39520,,Lientur - Nva Uno,,-36.8022621580101,-73.0390521662412,,,0,,
39521,,Lientur - Pje 33 / Sur,,-36.8018734295746,-73.0379685537991,,,0,,
39522,,Principal 355,,-36.8012506008961,-73.036259986493,,,0,,
39523,,Principal - Pje Seis,,-36.8008704581445,-73.0344441309489,,,0,,
39524,,Principal - Pje Once / Sur,,-36.8005504495066,-73.0335992351093,,,0,,
39525,,Principal - Andalien / Sur,,-36.799863178114,-73.0318638459175,,,0,,
39531,,Inicio Misionero Bartolome Del Pozo / Poniente,,-36.7929707936632,-73.039489366106,,,0,,
39532,,Misionero Bartolome Del Pozo / Poniente,,-36.7944163342233,-73.0409940853735,,,0,,
39533,,Misionero Bartolome Del Pozo - Calle Del Cerro / Norte,,-36.7952776314549,-73.0416458621744,,,0,,
39534,,Calle Del Cerro - Juna Guzman / Oriente,,-36.7939523895568,-73.0423405542888,,,0,,
39535,,Los Lleques - Jose Toribio Medina / Oriente,,-36.7921674651271,-73.0425497665919,,,0,,
39565,,Hernan Del Solar - Alberto Blest Gana,,-36.7955504093569,-73.0492472423794,,,0,,
39566,,Calle Cuatro - Calle Sur / Norte,,-36.7950306270048,-73.0514493359806,,,0,,
39567,,Calle Cuatro / Norte,,-36.7949941132359,-73.0532812847377,,,0,,
39568,,Calle Cuatro - Melchor Bravo De Saravia,,-36.7942573905336,-73.0556496754207,,,0,,
39569,,Padre Alonso De Ovalle - Cano Y Aponte,,-36.791974149516,-73.0562048927277,,,0,,
39570,,Alonso Garcia De Ramon - Garcia Hurtado De Mendoza,,-36.7917056548025,-73.0573072807965,,,0,,
39571,,Alonso Garcia De Ramon / Oriente,,-36.7904190150771,-73.058291651505,,,0,,
39572,,Ramon Carrasco - Ramona Hormazabal,,-36.7891688703069,-73.0573206915142,,,0,,
39573,,Ramon Carrasco - Calle Cuatro,,-36.788709189953,-73.0557408704044,,,0,,
39574,,Unimarc / Oriente,,-36.7877468595346,-73.0545722988609,,,0,,
39575,,Ramon Carrasco 487,,-36.7842153470339,-73.0544006374839,,,0,,
39576,,Calle C - Calle C 542,,-36.7806858200517,-73.0504354609729,,,0,,
39577,,Calle C / Ermita / Sur,,-36.7804731409876,-73.0479517347703,,,0,,
39578,,Calle C / Unimarc,,-36.7806492994463,-73.0443280703912,,,0,,
39579,,Calle C - Calle 101,,-36.7806127788235,-73.042678511847,,,0,,
39613,,Manuel Gutierrez - Janequeo,,-36.8062545640343,-73.0514922519797,,,0,,
39658,,Bulgaria - Grecia / Oriente,,-36.7863929944077,-73.1039985627285,,,0,,
39659,,Parroquia San Miguel,,-36.7844210036256,-73.1040441599544,,,0,,
39660,,Centro De Salud Familiar Hualpencillo,,-36.783136389905,-73.1040387958637,,,0,,
39668,,Hungria - Yugoslavia,,-36.7823007348864,-73.1167739236116,,,0,,
39669,,Hungria - Eger,,-36.783589659124,-73.1163823210954,,,0,,
39670,,Los Carpatos,,-36.7850976729626,-73.1158941590547,,,0,,
39671,,Abdon Cifuentes - Gobernador Juan Henriquez,,-36.7906359625219,-73.0465972200363,,,0,,
39672,,Gobernador Juan Henriquez / Oriente,,-36.7888337764896,-73.0476092845856,,,0,,
39673,,Garcia Hurtado De Mendoza - Cosme Churruca / Norte,,-36.7898089813458,-73.0518328921971,,,0,,
39674,,Garcia Hurtado De Mendoza 456 / Norte,,-36.7907906177511,-73.0540698545155,,,0,,
39675,,Plaza Belgica / Oriente,,-36.7778500506725,-73.0483594305406,,,0,,
39676,,Colegio Almondale Lomas / Sur,,-36.7758112395251,-73.0443683035264,,,0,,
39680,,Gongora Y Marmolejo - Vasconia,,-36.7862367497154,-73.0441161765339,,,0,,
39681,,Cantabria / Norte,,-36.7854698688968,-73.0451729668857,,,0,,
39682,,Magallanes - Cantabria,,-36.7856546083952,-73.0458166970493,,,0,,
39683,,Magallanes - Bartolome De Las Casas,,-36.7871733220415,-73.0456477178814,,,0,,
39684,,Magallanes - Pje Tres A,,-36.7883246888473,-73.0452856196644,,,0,,
39694,,Los Lleques - Jose Toribio Medina / Poniente,,-36.7917421701389,-73.0426302328624,,,0,,
39695,,Calle Del Cerro - Juna Guzman / Poniente,,-36.7939523895568,-73.0424585714854,,,0,,
39696,,Misionero Bartolome Del Pozo - Calle Del Cerro / Sur,,-36.795404355168,-73.0415922179941,,,0,,
39697,,Misionero Bartolome Del Pozo / Oriente,,-36.7943390103073,-73.0407446399249,,,0,,
39698,,Inicio Misionero Bartolome Del Pozo / Oriente,,-36.7930824857338,-73.0394571795978,,,0,,
39699,,Andalien - Campos Deportivos / Sur,,-36.7925283196293,-73.0374428406685,,,0,,
39705,,Principal - Andalien / Norte,,-36.7998352575833,-73.0319899097412,,,0,,
39706,,Principal - Pje Once / Norte,,-36.8004817226449,-73.0336957946338,,,0,,
39707,,Principal - Pje Trece,,-36.8008317994538,-73.0346533432521,,,0,,
39708,,Principal - Balmaceda,,-36.8013450993663,-73.0367669241605,,,0,,
39709,,Lientur - Pje 33 / Norte,,-36.8017832271141,-73.0380517022786,,,0,,
39710,,Lientur - Miguel Curuchaga,,-36.8021934326844,-73.0391514079747,,,0,,
39711,,Lientur - Las Torres / Poniente,,-36.8027088711237,-73.0402484311344,,,0,,
39717,,Lautaro - Montriou,,-36.8066948112355,-73.0498355190502,,,0,,
39718,,Juan De Dios Rivera - Janequeo,,-36.8081508302907,-73.0502235671156,,,0,,
39719,,Juan De Dios Rivera - Ongolmo,,-36.8090849872276,-73.0525559652597,,,0,,
39720,,Juan De Dioss Rivera - Los Retamos,,-36.80992249755,-73.0545542109758,,,0,,
39721,,Ejército - Colo Colo,,-36.8125079844379,-73.0574241746217,,,0,,
39722,,Aníbal Pinto - Argentina,,-36.8148786531497,-73.0573437083513,,,0,,
39723,,Manuel Bulnes - Colo Colo,,-36.8199117860512,-73.0527437198907,,,0,,
39724,,Manuel Bulnes - Tucapel,,-36.8188167213134,-73.0501661170274,,,0,,
39725,,Orompello - Las Heras,,-36.8199311105824,-73.0476904381067,,,0,,
39942,,Almirante Latorre - El Huascar / Norte,,-36.7204686644536,-73.1259392912125,,,0,,
39954,,Alc Rene Mendoza - Pedro De Valdivia,,-36.7196936619058,-72.9819548595697,,,0,,
39955,,Alc Rene Mendoza - Lautaro,,-36.7187390654016,-72.9808149207383,,,0,,
39956,,Alc Rene Mendoza - Los Alamos,,-36.7180016099801,-72.9797688592225,,,0,,
39985,,Ejercito - Pelantaro,,-36.8070176575715,-73.0441705695193,,,0,,
39986,,Barrio Norte,,-36.8069181551893,-73.0514341156231,,,0,,
39991,,Carriel Sur - Montriou,,-36.8049381024246,-73.0450898184063,,,0,,
40107,,Jose Diaz - Bilbao,,-36.7251108494218,-73.1175088492091,,,0,,
40115,,Almirante Latorre - El Huascar / Sur,,-36.7206062615832,-73.1258373672699,,,0,,
40116,,Almirante Latorre 860,,-36.7194839778018,-73.1232517180251,,,0,,
40117,,Almirante Latorre 788,,-36.7187040973601,-73.1211915223503,,,0,,
40160,,C Al Puerto Lirquen - La Marina / Norte,,-36.7205213992713,-72.9843339789659,,,0,,
40161,,Central / Norte,,-36.7226799243622,-72.988137351349,,,0,,
40162,,Central - Pje 7 / Poniente,,-36.7235785752898,-72.989585744217,,,0,,
40163,,Central - Pje 5 / Poniente,,-36.7243439252051,-72.9901543725282,,,0,,
40164,,Central - El Faro / Poniente,,-36.7247932422482,-72.9904923308641,,,0,,
40165,,Central / Poniente,,-36.7257843102598,-72.9909483063966,,,0,,
40166,,Central - Victor Orlaly / Poniente,,-36.7262486674443,-72.9910877812654,,,0,,
40167,,Central / Poniente,,-36.7269752948113,-72.991195069626,,,0,,
40329,,Juan De Dios Rivera - Carriel Sur,,-36.8059882669377,-73.045046903062,,,0,,
40330,,Liceo Jorge Sanchez Ugarte,,-36.8063146955086,-73.0457228203886,,,0,,
40331,,Juan De Dios Rivera - Ainavillo,,-36.8068580241889,-73.0471685310476,,,0,,
40332,,Juan De Dios Rivera - Lautaro,,-36.8076053632686,-73.0489414712065,,,0,,
39467,,Juan De Dios Rivera - Pje Cuatro,,-36.8053461435168,-73.0402430667164,,,0,,
39478,,Rengo - Ejército,,-36.8147691401799,-73.060543583706,,,0,,
39479,,Rengo - Argentina,,-36.8161541456116,-73.0596879590303,,,0,,
39480,,Rengo - Manuel Rodríguez,,-36.8178848303536,-73.0585694778711,,,0,,
39481,,Rengo - Gral. Cruz,,-36.8202166836406,-73.0571023095399,,,0,,
39482,,Rengo - Bulnes,,-36.8210368950703,-73.056573914364,,,0,,
39507,,Lorenzo Arenas - Juan José Manzano,,-36.8111894829319,-73.0297303665429,,,0,,
39508,,Juan José Manzano - Sta María,,-36.8101630116416,-73.0308676231652,,,0,,
39509,,Jose Miguel Garcia - Lorenzo Arenas,,-36.8095703148383,-73.0289751067676,,,0,,
39510,,Sta Clara - Andalien,,-36.8070663349529,-73.0296751633307,,,0,,
39538,,Ruta 156 - Cg Hacienda Patagonia,,-36.8645657682267,-73.0693792906459,,,0,,
39539,,Ruta 156 Km 5 8 / Oriente,,-36.858179252466,-73.0714231339152,,,0,,
39540,,Ruta 156 Km 6 3 / Oriente,,-36.8513151613364,-73.0732070618978,,,0,,
39541,,Iglesia De La Candelaria,,-36.8416804297288,-73.0799123257748,,,0,,
39542,,Pedro Aguirre Cerda / Norte,,-36.8409398631095,-73.0814009511232,,,0,,
39543,,Pedro Aguirre Cerda / Centro Deportivo,,-36.8399223783245,-73.083517214036,,,0,,
39544,,San Pedro 708,,-36.838615082353,-73.0873635024182,,,0,,
39548,,Lincoyán - San Martín,,-36.8306425912867,-73.0519229639322,,,0,,
39549,,Lincoyán - Freire,,-36.8272611974077,-73.054055320099,,,0,,
39550,,Lincoyán - Los Carrera,,-36.8252344363683,-73.0553293693811,,,0,,
39551,,Las Heras - Caupolicán,,-36.8229972077179,-73.0540177691728,,,0,,
39552,,Caupolicán - Manuel Rodríguez,,-36.817876241444,-73.0568716395646,,,0,,
39553,,Anibal Pinto - Bandera,,-36.816332369297,-73.0562359560281,,,0,,
39554,,Brasil - Castellón,,-36.8130834796049,-73.0555358994752,,,0,,
39559,,Juan De Dios Rivera - Nva Dos,,-36.805421308744,-73.0401679648639,,,0,,
39602,,Roosevelt - San Martín,,-36.8234824471259,-73.0366585124284,,,0,,
39603,,Hospital Clínico Regional De Concepción - Roosevelt,,-36.8247384728959,-73.0370286572725,,,0,,
39604,,Chacabuco - Ongolmo / Norte,,-36.8275768004929,-73.0410251487046,,,0,,
39605,,Chacabuco - Tucapel / Norte,,-36.828560099718,-73.0433533061296,,,0,,
39606,,Chacabuco - Colo Colo / Norte,,-36.8296571719293,-73.0460274685174,,,0,,
39607,,Chacabuco - Anibal Pinto,,-36.8301552504022,-73.0472317803651,,,0,,
39608,,Chacabuco - Trinitarias,,-36.8306060944998,-73.0482751596719,,,0,,
39609,,Chacabuco - Lincoyán,,-36.831589354792,-73.0506006348878,,,0,,
39736,,Calle Tres - Calle Dos,,-36.8151749815766,-73.0804160702974,,,0,,
39737,,Dr. Sta. Cruz - Pje Tres,,-36.8139273882014,-73.0796704161912,,,0,,
39738,,Rodolfo Briceño - Miraflores,,-36.8138930307812,-73.0764303077012,,,0,,
39739,,Jorge Montt - Sotomayor,,-36.8140283130341,-73.0743515957147,,,0,,
39740,,Jorge Montt - Alte Riveros / Sur,,-36.8161820601922,-73.071529911831,,,0,,
39741,,Jorge Montt - Argomedo,,-36.8175348315091,-73.0696630943567,,,0,,
39742,,Rosamel Del Solar - Pedro León Gallo,,-36.8184280769237,-73.067570971325,,,0,,
39766,,Los Notros - Los Cipreses / Norte,,-36.7961732843894,-73.0355867518665,,,0,,
39767,,Los Notros - Los Naranjos,,-36.7973051857072,-73.0367964281322,,,0,,
39768,,Los Nardos 2570 / Poniente,,-36.7983769326387,-73.0383279694797,,,0,,
39769,,Balmaceda - Vasconia,,-36.7998996895618,-73.0379229559185,,,0,,
39775,,Barrio Norte,,-36.8054835884478,-73.0385058675165,,,0,,
39910,,Balmaceda - Manuel Gutierrez,,-36.8008275040426,-73.0372658147098,,,0,,
39911,,Balmaceda - Los Lingues,,-36.7990728083881,-73.0382850541355,,,0,,
39912,,Los Nardos 2570 / Oriente,,-36.7983661937659,-73.03819117682,,,0,,
39913,,Los Notros - Los Notros,,-36.7972536383827,-73.036396778989,,,0,,
39914,,Los Notros - Los Cipreses / Sur,,-36.7962484586197,-73.0355170144321,,,0,,
39940,,Jorge Montt - Alte. Riveros / Norte,,-36.8163108965858,-73.0711141694337,,,0,,
39941,,Miraflores - Calle Uno,,-36.8153768278192,-73.0778465140611,,,0,,
39973,,Av Pedro Aguierre Cerda 380,,-36.8392182863278,-73.0873635024182,,,0,,
39974,,Pedro Aquirre Cerda / Sur,,-36.8410471920494,-73.0815028750658,,,0,,
39975,,Pedro Aguirre Cerda / Gasolinera,,-36.8419186974641,-73.0796521515003,,,0,,
39976,,Ruta 156 Km 6 3 / Poniente,,-36.851521204807,-73.0733948165289,,,0,,
39977,,Ruta 156 Km 5 8 / Poniente,,-36.8581985673303,-73.0715760198291,,,0,,
39978,,Ruta 156 - Recodo,,-36.8644498886228,-73.0697172489818,,,0,,
39979,,Acceso Capilla Montahue,,-36.8652889388215,-73.0714311805423,,,0,,
39980,,Salida Recodo,,-36.8647352954788,-73.0700444784816,,,0,,
39981,,Ruta 156 Km 4 2 / Poniente,,-36.8686965465873,-73.0683546868022,,,0,,
39982,,Acceso Pedro De Valdivia Sur,,-36.872794916527,-73.0671745148356,,,0,,
39983,,Pedro De Valdivia Sur / Interior,,-36.8743027518478,-73.0705731326452,,,0,,
39984,,Salida Pedro De Valdivia Sur,,-36.8736446033409,-73.0666407552417,,,0,,
40035,,Chipre,,-36.7995769617795,-73.1037115661184,,,0,,
40037,,Postdam - Alemania,,-36.7940334422669,-73.1057393160518,,,0,,
40038,,Sajonia - Alemania,,-36.7950622776407,-73.1060906854327,,,0,,
40039,,Sajonia - Munich,,-36.7966151700006,-73.1035238114055,,,0,,
40040,,Postdam - La Reconquista,,-36.7968213602851,-73.1003427115138,,,0,,
40041,,Postdam - Quirihue,,-36.800290008304,-73.0938812700788,,,0,,
40042,,Av Los Copihues - Las Loberias,,-36.8000945654605,-73.0909040179904,,,0,,
40043,,Av Los Copihues - Los Robles,,-36.7996693145112,-73.08877434436,,,0,,
40118,,Oceano Atlantico - Mar Egeo,,-36.8020876285323,-73.1011956539805,,,0,,
40119,,Oceano Atlantico - Mar Negro,,-36.8014948702681,-73.1031161156352,,,0,,
40243,,Av Los Copihues - Eduardo Barrios,,-36.7994523926483,-73.0884846651315,,,0,,
40244,,Av Los Copihues - Fernando Santivan,,-36.7997960309259,-73.0902951568714,,,0,,
40245,,Av Los Copihues - Curarrehue,,-36.800103156363,-73.0918401089366,,,0,,
40246,,Antihuala - Tulpan,,-36.8002234289476,-73.0932911840955,,,0,,
40247,,Postdam - Pilpilco,,-36.7992784251659,-73.0965017882045,,,0,,
40248,,Postdam - Napoles,,-36.796456230349,-73.100838920509,,,0,,
40249,,Sajonia - Frankfort,,-36.7963015870816,-73.1038832275772,,,0,,
40250,,Sajonia - Dresden,,-36.7951288614999,-73.1057419982608,,,0,,
40251,,Alemania - Postdam,,-36.7943620691572,-73.1055488792526,,,0,,
40253,,Chipre - Atenas,,-36.7991538556802,-73.1043043342288,,,0,,
40254,,Av La Reconquista,,-36.8004081318966,-73.1038644520322,,,0,,
40268,,Lastarria - Baldomero Sanchez,,-36.8268232154591,-73.0660579539835,,,0,,
40269,,Lastarria - Guillermo Mata,,-36.8240879185323,-73.0678228475153,,,0,,
40272,,Cesfam Costanera,,-36.8286137728927,-73.0674875713885,,,0,,
40273,,Costanera - Baldomero Sánchez,,-36.8277678792792,-73.0683568585664,,,0,,
40274,,Pedro León Gallo - P1,,-36.8205001084793,-73.0669728387147,,,0,,
40275,,Pedro León Gallo - P3,,-36.8194007577901,-73.0669245589525,,,0,,
40277,,Rosamel Del Solar - Jorge Montt,,-36.81835507168,-73.0689737666398,,,0,,
40279,,Miraflores - Jorge Montt,,-36.8130126166276,-73.074947046116,,,0,,
40280,,Pto Saavedra - Malleco,,-36.8019244054112,-73.0811595527211,,,0,,
40281,,Latorre - Pérez Rosales,,-36.8252172601979,-73.06815225631,,,0,,
40283,,Baldomero Sánchez,,-36.8279954556379,-73.0684182979167,,,0,,
40294,,Pedro León Gallo - P2,,-36.8201200612965,-73.0670852400362,,,0,,
40299,,Jose Miguel Garcia - Camilo Henriquez,,-36.8079317849456,-73.032132066819,,,0,,
40344,,Bahia Mansa,,-36.7108018492472,-73.1441997681395,,,0,,
40354,,Tumbes - Antofagasta,,-36.7148554891212,-73.125163874065,,,0,,
40355,,Tumbes - Valparaiso,,-36.7155585733717,-73.1234043449513,,,0,,
40356,,Tumbes - Raquelita,,-36.7163390537112,-73.1224709362141,,,0,,
40357,,Tumbes - Principal,,-36.7161691977835,-73.1199040628417,,,0,,
40361,,Banco Encalada - Maipu / Sur,,-36.7124532042148,-73.1138049782021,,,0,,
40362,,Banco Encalada / Sur,,-36.7137868741552,-73.1118654804595,,,0,,
40363,,Banco Encalada - Esmeralda / Sur,,-36.7148060356918,-73.1102963894955,,,0,,
40444,,Pque Zoológico De Concepción / Oriente,,-36.8400173950559,-73.0068216193467,,,0,,
40539,,Tumbes - Bellavista,,-36.7161003954067,-73.1199496603949,,,0,,
40540,,Tumbes - Baldomero Lara,,-36.7161777980926,-73.1225353092304,,,0,,
40541,,Tumbes - Santiago,,-36.7151801556762,-73.1240507573239,,,0,,
40542,,Tumbes - Camino A Tumbes,,-36.7144426663522,-73.1258505195729,,,0,,
40568,,Ruta 148,,-36.8020581295192,-72.9664436448365,,,0,,
40569,,Ruta 148 / Sur,,-36.801201203922,-72.9635307658464,,,0,,
40570,,Ruta 148 / Norte,,-36.8003743368,-72.9592660535127,,,0,,
40571,,Ruta 148 / Norte,,-36.8010744897994,-72.9639786947519,,,0,,
40592,,Punta Peña Blanca,,-36.7109222618996,-73.1452619229094,,,0,,
40655,,Camino A La Cabaña,,-36.8389591108785,-73.0086991656572,,,0,,
40733,,Yugoslavia - Gran Bretaña,,-36.7811514256943,-73.111358543938,,,0,,
40735,,Caleta Lenga / Hualpén,,-36.7669743321718,-73.1654850114137,,,0,,
40736,,Faro Av. Lenga,,-36.7669184671303,-73.171477066353,,,0,,
40740,,Yugoslavia - Londres,,-36.7811557220778,-73.1107684579547,,,0,,
40855,,Errázuriz - Francisco Encina,,-36.8651017394953,-73.0418481049127,,,,,
40856,,Jaime Eyzaguirre - Rafael Sotomayor,,-36.865714928506,-73.0401938525028,,,,,
40857,,Rafael Sotomayot - Zenon Urrutia,,-36.8655820627128,-73.0382723928778,,,0,,
40863,,Valle Noble - Alicante,,-36.8179084498498,-73.0058452952654,,,,,
40864,,Valle Noble - Tarragona,,-36.8179900444172,-73.0055958498269,,,,,
40865,,Av Gral Oscar Bonilla - Regimiento / Norte,,-36.8121171606266,-73.0249517937773,,,0,,
40869,,Av Principal - Cinco Pte,,-36.8663898062607,-73.0352659639902,,,,,
40871,,Salida Lonco,,-36.8652372887585,-73.0430172199704,,,0,,
37445,,Almirante Latorre - Pedro Montt,,-36.7243842044136,-73.1317486971966,,,0,,
37901,,Manuel Rodriguez - Francia,,-36.9551421537888,-73.0133462813682,,,0,,
37904,,Talleres Omer Huett / Sp,,-36.9671339032214,-72.997538682539,,,0,,
38039,,Patricio Lynch - Esmeralda / Poniente,,-36.9784466691748,-72.9409143794328,,,0,,
38040,,La Concepción - Esmeralda,,-36.9802379573578,-72.9395598638803,,,0,,
38041,,Colón - Manuel Bulnes,,-36.9788087870526,-72.9376769531518,,,0,,
38042,,Colón - Errázuriz,,-36.9778295649153,-72.9363114573061,,,0,,
38043,,Colón - Irarrázabal,,-36.9766339111711,-72.9363490082324,,,0,,
38044,,José Miguel Carrera - Portales,,-36.9742661184813,-72.9364806879312,,,0,,
38045,,José Miguel Carrera - La Araucana,,-36.9726482630129,-72.936461661011,,,0,,
38046,,Bombero Ferret - Guacolda,,-36.9707667931368,-72.9335165955126,,,0,,
38049,,Los Naranjos - Calle1,,-36.9689945688391,-72.9340720642358,,,0,,
38050,,Los Yaganes - Los Olivos,,-36.9681909468846,-72.9309526551515,,,0,,
38051,,Fresia - Los Acacios,,-36.968769555547,-72.9305798280984,,,0,,
38052,,Bombero Perret - Fresia,,-36.9691938657709,-72.930153356865,,,0,,
38053,,Bombero Perret - Tegualda,,-36.9682380929402,-72.9283079970628,,,0,,
38054,,Tegualda - Calle1 / Poniente,,-36.9701217682712,-72.9272512067109,,,0,,
38055,,Terminal De Buses Las Galaxias - Poniente,,-36.9731368375605,-72.9271895159036,,,0,,
38091,,Terminal De Buses Las Galaxias / Oriente,,-36.9731646947867,-72.9270446766168,,,0,,
38092,,Tegualda - Padre Ignacio García Central,,-36.9709575137277,-72.9267684090883,,,0,,
38093,,Tegualda - Calle1 / Oriente,,-36.9700681945315,-72.9270580876619,,,0,,
38094,,Tegualda - Bombero Perret,,-36.9682702379613,-72.9280773270875,,,0,,
38095,,Fresia - Bombero Perret,,-36.9689452802701,-72.930335747078,,,0,,
38096,,Calle 1 - Los Naranjos,,-36.9691510062598,-72.934292005375,,,0,,
38097,,Caale 1 - Av La Araucana / Poniente,,-36.9729825512001,-72.9331493843347,,,0,,
38098,,Portales - Pedro De Valdivia,,-36.9744396876874,-72.9330337978899,,,0,,
38099,,Portales - San Martín,,-36.9744182594118,-72.9342939332128,,,0,,
38100,,Portales - Manuel Bulnes,,-36.9743432603996,-72.9375026095659,,,0,,
38101,,La Concepción - Esmeralda,,-36.9797751405277,-72.9394981730729,,,0,,
38102,,La Concepción - Colón,,-36.9788773535574,-72.9393533337861,,,0,,
38103,,Errázuriz - La Concepción,,-36.9777695684009,-72.9392219055444,,,0,,
38104,,Plaza De Hualqui - La Concepción,La Concepción - Ramón Freire,-36.9755646636852,-72.9388973582536,,,0,,
38105,,La Concepción - Portales,,-36.9744975440015,-72.9387793410569,,,0,,
38295,,Talleres Omer Huett / So,,-36.9668965619525,-72.9973992076701,,,0,,
38296,,Talleres Omer Huett / Np,,-36.9665370662058,-72.999375325162,,,0,,
38537,,Gomez Carreño - Autopista,,-36.764895987361,-73.0861699194065,,,0,,
38538,,Gomez Carreño - Los Juncos,,-36.7632565018963,-73.0870711416355,,,0,,
38573,,Almirante Pedro Latorre - Pedro Montt / Norte,,-36.724246465515,-73.1319394339516,,,0,,
40282,,Sta María - Gabriela Mistral / Sur,,-36.9649163675807,-72.9301828611642,,,0,,
40335,,Bombero Perret - Gabriela Mistral,,-36.9677066266227,-72.9274657834321,,,0,,
40336,,Bombero Perret - Pje Estero Lircay,,-36.9672930232518,-72.9266745317727,,,0,,
40337,,Bombero Perret - Río Bio Bio,,-36.9667551212057,-72.9255560506135,,,0,,
40338,,Río Bio Bio - Pje Estero Araucana,,-36.9653364131152,-72.9265135992318,,,0,,
40339,,Río Bio Bio - Pje Río Quilacoya,,-36.9648242144238,-72.9269132483751,,,0,,
40340,,Río Bio Bio - Chile,,-36.9643677331881,-72.9272270668298,,,0,,
40341,,Río Bio Bio - Sta María,,-36.9639155354626,-72.9277527797967,,,0,,
40342,,Santa María / Norte,,-36.9619416930896,-72.9287425149232,,,0,,
40343,,Gabriela Misral - Chile,,-36.9652228296024,-72.9294050205499,,,0,,
40584,,Calle 1 - Calle 4,,-36.9508215321773,-73.0106258508749,,,,,
40585,,Calle 1 - Pje 8,,-36.9505359113221,-73.0101309833117,,,,,
40586,,Calle 1 - Pje 9,,-36.9500755932809,-73.0092813936062,,,,,
40587,,Salida Terminal Las Galaxias,,-36.9486871200346,-73.0121618974954,,,0,,
40588,,Pje 8 - Calle 1,,-36.9473093394352,-73.0086470511742,,,,,
40593,,Colegio Licanray,,-36.9453334588882,-73.0108752963134,,,,,
40594,,Calle 1 - Calle 5,,-36.9498274812388,-73.0088976491243,,,0,,
40595,,Calle 1 - Pje 6 / Norte,,-36.9470638978804,-73.0091030267068,,,0,,
40596,,Calle 1 - Pje1 / Norte,,-36.9467107393211,-73.0109093058854,,,0,,
40597,,Bdo O'Higgins - Calle 2,,-36.9425734640156,-73.0099935200996,,,,,
40598,,Bdo O'Higgins - Calle 1,,-36.9415921679597,-73.0099331703968,,,,,
40599,,Colegio Madre Paulina,,-36.9396729500134,-73.0105473962612,,,,,
40600,,Manquimavida,,-36.9382215796851,-73.0112392175943,,,,,
40601,,Bdo O'Higgins - Calle B,,-36.9375575203067,-73.0115646240301,,,,,
40602,,B O'Higgins - Calle A,,-36.9369014947062,-73.0118804541416,,,,,
40603,,Bdo O'Higgins - El Maitén,,-36.9345340743167,-73.0129499849863,,,,,
40604,,Bdo O'Higgins - El Nogal / Poniente,,-36.9332814610389,-73.0138149973936,,,,,
40605,,Bdo O'Higgins - El Nogal / Oriente,,-36.9333270207188,-73.0138733354397,,,,,
40606,,Bdo O'Higgins - El Peral,,-36.9307638444012,-73.0162551370449,,,,,
40607,,Bdo O'Higgins - Pinares / Oriente,,-36.9294731115265,-73.0175030347891,,,,,
40608,,Bdo O'Higgins - Pinares / Poniente,,-36.9294827599431,-73.0175960529595,,,,,
40609,,Bdo O'Higgins - Sta Justina / Oriente,,-36.9272534072477,-73.0196407553739,,,,,
40610,,Bdo O'Higgins - Calle Nueva,,-36.9249837852624,-73.0218160268851,,,,,
40611,,Bdo O'Higgins - Calle 3,,-36.9231038181122,-73.0233596381731,,,,,
40612,,Bdo O'Higgins - Cochrane / Oriente,,-36.9211294542627,-73.0247335997411,,,,,
40620,,Bdo O'Higgins - San Martín,,-36.918534237921,-73.0264897760935,,,0,,
40960,,Bdo O'Higgins - Cochrane / Poniente,,-36.9210560110155,-73.024870203808,,,0,,
40961,,Bdo O'Higgins - Sta Justina / Poniente,,-36.9274115385243,-73.0196103919298,,,,,
40962,,Calle 1 - Pje6 / Sur,,-36.9471544648344,-73.0091685522348,,,0,,
40963,,Bdo O'Higgins - Calle1,,-36.9492744510575,-73.0122925713658,,,0,,
40964,,Los Alerces - Los Aromos,,-36.9682916679679,-72.9325512517244,,,0,,
40965,,Fresia - Los Alerces,,-36.9668386998606,-72.9317921865731,,,0,,
40968,,Sta María - Gabriela Mistral,,-36.9647963541452,-72.9302043188363,,,0,,
49112,,Bilbao - Balmaceda,,-36.7243347577745,-73.1136384216006,,,0,,
49120,,Gran Bretaña - Bb / Poniente,,-36.7437905747432,-73.1211781114689,,,0,,
49121,,Gran Bretaña - Inchalam / Poniente,,-36.751925259362,-73.1240158886067,,,0,,
49122,,Gran Bretaña - Edyce / Poniente,,-36.7551187205009,-73.1233131498448,,,0,,
49123,,Gran Bretaña - Laguna Los Coipos / Poniente,,-36.7595820362712,-73.1203063928842,,,0,,
49159,,Av Padre Hurtado - Los Carrera,,-36.8279009900617,-73.0621502269059,,,0,,
49166,,Concepcion,,-36.8296657595166,-73.0613348353654,,,0,,
49219,,Plaza De Hualqui - Ramón Freire,Ramón Freire - Manuel Bulnes,-36.9755003797904,-72.9379532206804,,,0,,
49232,,Lautaro - Caupolicán,,-36.963075426397,-72.9350913036615,,,0,,
49236,,El Aguila - Huilliches / Poniente,,-36.9639905447498,-72.9369766451418,,,0,,
49249,,Plaza De Hualqui - Irrarázaval / Norte,,-36.976383207197,-72.9388893116266,,,0,,
49345,,Laguna Los Coipos,,-36.76081977067,-73.1187051147572,,,0,,
49346,,Gran Bretaña - Edyce / Oriente,,-36.7545422221909,-73.1231927084445,,,0,,
49347,,Gran Bretaña - Inchalam,,-36.7518371471842,-73.1235438191652,,,0,,
49348,,Gran Bretaña - Bb / Oriente,,-36.7433929524527,-73.1205263346783,,,0,,
49356,,Bilbao - Beaucheff,,-36.7243218586803,-73.1129732337649,,,0,,
49358,,Manuel Rodriguez - Benavente,,-36.724923814168,-73.109097441411,,,0,,
49367,,Final Las Palomas,,-36.7896000562202,-73.0792417731936,,,0,,
49368,,Las Torcazas,,-36.7918339649776,-73.080381712025,,,0,,
49369,,Los Zorzales - Las Codornices,,-36.7938981246864,-73.0810817687416,,,0,,
49370,,Los Zorzales - Arteaga Alemparte,,-36.7956207211185,-73.0819829908887,,,0,,
49371,,Malleco - Los Angeles,,-36.7995855527421,-73.0820956436673,,,0,,
49372,,Malleco - Pto Saavedra,,-36.8014003719827,-73.0810013024711,,,0,,
49373,,Marina De Chile - Mencia De Los Nidos / Sur,,-36.8081658627914,-73.0763766635209,,,0,,
49374,,Alberto Cobo - Costanera,,-36.8329783494325,-73.007768439129,,,0,,
49375,,Marina De Chile - Pje 9 / Sur,,-36.8091945083289,-73.0747807491571,,,0,,
49376,,Marina De Chile - Pje 7 / Sur,,-36.8095638724566,-73.0738553870469,,,0,,
49377,,Lorenzo Arenas,,-36.8080606352245,-73.0712777841836,,,0,,
49378,,La Laguna - Pje 12,,-36.8088809769153,-73.0693921912462,,,0,,
49379,,Av Laguna Redonda - Almte Riveros,,-36.8119303375504,-73.0662057269365,,,0,,
49380,,El Golf P1,,-36.8102811209635,-73.064687596634,,,0,,
49381,,El Golf P2,,-36.809248195086,-73.0617371667176,,,0,,
49382,,El Golf P3,,-36.8091751810871,-73.0635664332658,,,0,,
49383,,El Roble - Pje 10,,-36.807933932452,-73.0653796065599,,,0,,
49384,,El Lingue - El Roble,,-36.8077900493883,-73.0627778638154,,,0,,
49385,,El Lingue - Pje 23,,-36.8071264657897,-73.0628449190408,,,0,,
49386,,Aníbal Pinto - Cristián Canales,,-36.8094414671,-73.0593660939485,,,0,,
49387,,Aníbal Pinto - Almte Riveros,,-36.8111379449526,-73.0597603786737,,,0,,
49424,,Stgo. Amegual - Calle 1,,-36.8322999564374,-73.0102253425866,,,0,,
49425,,Morro De Arica - Costanera,,-36.8325167852324,-73.0080366600305,,,0,,
49426,,Stgo Amengual - Eleuterio Ramírez,,-36.8326133919233,-73.0098632443696,,,0,,
49427,,Stgo Amegual - Nueva Uno,,-36.8314197540278,-73.0106625426561,,,0,,
49432,,Anibal Pinto - Alte Riveros / Oriente,,-36.8111057336979,-73.0596155393869,,,0,,
49472,,Brasil - Colo Colo,,-36.8133003628551,-73.056396888569,,,0,,
49473,,Diego De Almagro - Laguna Redonda,,-36.8097056047302,-73.0678794253618,,,0,,
49474,,Los Boldos - Pje 13,,-36.8077513941908,-73.069008635357,,,0,,
49475,,La Laguna - Pje 17,,-36.8068537291156,-73.0725491512567,,,0,,
49476,,Pje Ocho - Fernández Vial,,-36.8078201145285,-73.0732653010637,,,0,,
49479,,Malleco - Traiguen,,-36.8004317578337,-73.0814599600899,,,0,,
49480,,Malleco_Nva Imperial,,-36.7979989234088,-73.0829051602632,,,0,,
49481,,Las Palomas - Los Gorriones,,-36.791424271333,-73.0801880825311,,,0,,
49482,,Los Zarzales - Porvenir,,-36.7958312092472,-73.0819508042987,,,0,,
49483,,Los Zorzales - Los Zapatitos,,-36.7942224568999,-73.0810817687416,,,0,,
49484,,Los Zorzales - Los Gorriones,,-36.791911291422,-73.0798962321933,,,0,,
49485,,Las Palomas - Los Colibries,,-36.79057310333,-73.0797755327876,,,0,,
49486,,Inicio 90j,,-36.8283174964984,-73.0260362103581,,,0,,
49487,,Lago Villarrica - Lago Caburga,,-36.8259901840497,-73.0251569487154,,,0,,
49488,,Lago Villarrica - Pje Nueve,,-36.8230530318773,-73.0234808195382,,,0,,
49489,,Lago Villarrica - Pje Siete,,-36.8221040156306,-73.0228612292558,,,0,,
49490,,Lago Villarrica - Pje Plaza,,-36.8207298536011,-73.0221075285226,,,0,,
49503,,Arturo Prat - Manuel Rodríguez,,-36.8210433364865,-73.0644025281072,,,0,,
49504,,Ejercito - Av Argentina,,-36.8175627455861,-73.0624452698976,,,0,,
49505,,Laguna Redonda,,-36.8099332348023,-73.0676377750933,,,0,,
49509,,Salas - Manuel Rodríguez,,-36.8193470781528,-73.0623111594468,,,0,,
49510,,Alemparte - Vía Interlagunas,,-36.8143375287145,-73.0643040407449,,,0,,
49511,,Rotonda,,-36.7889497706691,-73.0810893047601,,,0,,
49512,,Arteaga Alemparte / Oriente,,-36.799705826117,-73.0797621219062,,,0,,
49513,,Arteaga Alemparte - Los Zorzales,,-36.796179160525,-73.0818917957822,,,0,,
49514,,Arteaga Alemparte - Los Tordos,,-36.7955326591481,-73.0823397246877,,,0,,
49515,,Sta Claudia - Arteaga Alemparte,,-36.7933332249036,-73.0834233371706,,,0,,
49516,,Sta Claudia - Las Codornices,,-36.7931543802864,-73.0830024894658,,,0,,
49517,,Entrada Av Sta Maria,,-36.7901628355256,-73.0818757024872,,,0,,
49518,,Salida Av Sta Maria,,-36.7903497117089,-73.0820956436264,,,0,,
49519,,Salida Las Palomas,,-36.7908517745281,-73.0799984153691,,,0,,
49520,,La Laguna Sur,,-36.809207393154,-73.0693490244448,,,0,,
49521,,Ejercito - Dr Arturo Loosli,,-36.817876241444,-73.0626598466188,,,0,,
49522,,Arteaga Alemparte / Poniente,,-36.7998126455535,-73.0798374829101,,,0,,
49523,,Aníbal Pinto - Pje Dieciseis,,-36.8062781871192,-73.0705455411226,,,0,,
49524,,Alemparte - Ejército,,-36.8153768278192,-73.0619705189019,,,0,,
49532,,Lago Villarrica - Arturo Pérez Canto,,-36.8200320274991,-73.0221477616578,,,0,,
49538,,Plaza Cristan Canales,,-36.8094865638331,-73.059488664876,,,0,,
30954,,Mercado,,-36.7118243365727,-73.1154430378228,,,0,,
30955,,El Arenal,,-36.7251565636766,-73.1168941128999,,,0,,
30956,,Hospital Las Higueras,,-36.7393419540706,-73.1029761303216,,,0,,
30957,,Los Cóndores,,-36.7569523520186,-73.0916169751436,,,0,,
30958,,Univ. Técnica Federico Santa María,,-36.7836245976059,-73.085571276024,,,0,,
30961,,Chiguayante,,-36.9151931890177,-73.0290732253343,,,0,,
30962,,Pedro Medina,,-36.9254753458742,-73.0215871799737,,,0,,
30964,,La Leonera,,-36.9514393912634,-73.013165043667,,,0,,
30965,,Hualqui,,-36.9804950766026,-72.9409599769861,,,0,,
31013,,Alborada,,-36.8464719674847,-73.1309408415109,,,0,,
31017,,Costa Mar,,-36.8549198295793,-73.1330141890794,,,0,,
31021,,Lomas Coloradas,,-36.8830726269801,-73.1398269999772,,,0,,
32557,,Terminal Bio Bus,,-36.8299233866889,-73.0607957113534,,,0,,
32575,,Hotel Holiday,,-36.7929629179232,-73.0641074292907,,,0,,
40973,,Calle Seis / Norte,,-36.7722957974156,-73.0779489484484,,,,,
40974,,Americo Vespucio - Alonso De Ojeda,,-36.7836814635987,-73.0786841327062,,,,,
40977,,Univ. De Las Americas,,-36.7830939933285,-73.0588799268662,,,0,,
40978,,Clinica Bio Bio,,-36.7897531329446,-73.0621728077449,,,0,,
40980,,Vasco Nuñez De Balboa - Inacap / Oriente,,-36.782118135533,-73.0738746729548,,,0,,
40981,,Vasco Nuñez De Balboa - Tvn / Oriente,,-36.7781072844554,-73.0756878462489,,,0,,
40982,,Vasco Nuñez De Balboa - Calle Uno / Oriente,,-36.7751661471159,-73.0756100621875,,,0,,
40983,,Calle Seis - Calle Cuatro,,-36.7715717475968,-73.0791237560788,,,0,,
40984,,Calle Seis / Sur,,-36.7725106476688,-73.0778389778789,,,0,,
40985,,Calle Uno - Calle Seis,,-36.7731014827928,-73.076527377998,,,0,,
40986,,Vasco Nuñez De Balboa - Calle Siete / Oriente,,-36.769822827754,-73.0756449310684,,,0,,
40987,,Complejo Deportivo Ucla,,-36.7718575010654,-73.0665334668811,,,0,,
40988,,Salida Complejo Ucla,,-36.7707982745271,-73.0672871679417,,,0,,
40989,,Vasco Nuñez De Balboa - Calle Siete,,-36.769925959277,-73.0758300034904,,,0,,
40990,,Vasco Nuñez De Balboa - Calle Uno / Poniente,,-36.7753143882388,-73.0757361260112,,,0,,
40991,,Tvn,,-36.7780858010257,-73.0758085456546,,,0,,
40992,,Vasco Nuñez De Balboa - Inacap / Poniente,,-36.7822513256925,-73.0739256349261,,,0,,
44790,,Rio Iuble - Rio Pilmaiquen,,-36.759102838466,-73.0954101291354,,,0,,
44791,,Rio Maule - Rio Mapocho,,-36.7614257375194,-73.0934977141078,,,0,,
44792,,Rio Maule - Los Nardos,,-36.756645770298,-73.0946363321345,,,0,,
44799,,Rio Mapocho - Rio Andalien,,-36.761988723444,-73.0988621318102,,,0,,
44800,,Rio Mapocho - Rio Iuble,,-36.7617437604965,-73.0965795722659,,,0,,
44801,,Lago Rupanco - Rio Loncomilla,,-36.762313190705,-73.100541194981,,,0,,
44802,,Lago Llanquihue Ranco - Lago,,-36.7636531567149,-73.1005988828565,,,0,,
44803,,Lago Llanquihue - Lago Maullin,,-36.76471677946,-73.097248803715,,,0,,
44804,,Lago Lanalhue - Lago Panguipulli,,-36.764688846122,-73.0929545870822,,,0,,
44805,,Rio Loa - Rio Tolten,,-36.7634705129413,-73.0916349402469,,,0,,
44806,,Rio Loa - Los Jacintos,,-36.7626890795283,-73.0895337081165,,,0,,
44959,,Penco - Cruz,,-36.7417177517807,-72.9929886567697,,,0,,
44960,,San Luis - El Jardin,,-36.7287022605598,-72.9854355561838,,,0,,
44961,,Cementerio,,-36.7305624674051,-72.983532807848,,,0,,
44962,,El Manzano - Pje 2,,-36.7278681621119,-72.982235680829,,,0,,
44964,,Miramar - El Maiten,,-36.7471074470663,-72.9936358798295,,,0,,
44965,,El Maiten - Penco / Oriente,,-36.7434257599378,-72.9914471972734,,,0,,
45054,,El Maiten - Penco / Poniente,,-36.7431807377134,-72.9914176929742,,,0,,
45055,,El Maiten - Miramar,,-36.7470150309284,-72.9934159386903,,,0,,
45056,,Roberto Ovalle - Piscis / Norte,,-36.7468087061257,-72.9957762826234,,,0,,
45057,,Roberto Ovalle 28,,-36.7448313986352,-72.9979220498353,,,0,,
45058,,Max Grissar 326,,-36.7466389175908,-72.9995716083795,,,0,,
45059,,Max Grissar - Pedro De Ona,,-36.7485452558995,-72.9996520746499,,,0,,
45060,,Ruber Hurtado 78 / Poniente,,-36.7508276414981,-72.998952018097,,,0,,
45087,,Colegio Los Condores / Oriente,,-36.7550521008313,-73.0928244799725,,,0,,
45105,,Patria Nueva - La Conquista / Sur,,-36.7148947594034,-72.9728782642633,,,0,,
45106,,Patria Nueva - Independencia / Sur,,-36.7152301763116,-72.9715854395181,,,0,,
45107,,T Merino / Norte,,-36.7168577875653,-72.9703784454614,,,0,,
45108,,Arturo Prat - Pedro De Valdivia / Norte,,-36.7168749880285,-72.9724196065217,,,0,,
44629,,Los Avellanos - Antonio De Las Penas,,-36.8388147189501,-73.1150975433047,,,0,,
44630,,Los Boldos - Los Maquis / Sur,,-36.841974507719,-73.1132843700925,,,0,,
44631,,Los Peumos - Los Manios / Oriente,,-36.8416476641625,-73.1114446337369,,,0,,
44632,,Los Manios - Benedictinos / Sur,,-36.8416267656074,-73.1095131841357,,,0,,
44633,,Los Manios - Av San Pedro / Sur,,-36.8417727316669,-73.1071850267108,,,0,,
44634,,Los Manios - Los Acacios / Sur,,-36.8425589345609,-73.1052906252444,,,0,,
44635,,Los Manios - Los Sauces,,-36.8430569290265,-73.1043357588351,,,0,,
44636,,Los Nogales - Av. Los Aromos / Poniente,,-36.8440400292696,-73.1034881807864,,,0,,
44637,,Los Nogales - Los Saucos / Poniente,,-36.8452077126996,-73.1035901047289,,,0,,
44638,,Los Robles - Los Fresnos / Oriente,,-36.8474072359393,-73.1022953596766,,,0,,
44639,,Los Robles - Pedro De Leon / Sur,,-36.8467955099117,-73.1007986871282,,,0,,
44640,,Los Lirios,,-36.8464268925461,-73.0975124705583,,,0,,
44641,,Los Canelos - Gaspar De Verdugo / Oriente,,-36.8444736196834,-73.0980596411973,,,0,,
44716,,Los Canelos - Gaspar Verdugo / Poniente,,-36.8445524723472,-73.0982479063346,,,0,,
44717,,Los Canelos - J De Vega,,-36.8459053091813,-73.0974480975419,,,0,,
44718,,Los Robles - Pedro De Leon / Norte,,-36.8466866096847,-73.1008974183351,,,0,,
44719,,Los Robles - Los Fresnos / Poniente,,-36.8472677199583,-73.1023221817668,,,0,,
44720,,Los Nogales - Los Saucos / Oriente,,-36.845223750134,-73.1034570151678,,,0,,
44721,,Los Nogales - Av Los Aromos / Oriente,,-36.8440560669816,-73.1033765488974,,,0,,
44722,,Los Manios - Los Acacios / Norte,,-36.8425589345609,-73.1050599552691,,,0,,
44723,,Los Manios - Av San Pedro / Norte,,-36.8416761365278,-73.1071662512477,,,0,,
44724,,Los Manios - Benedictinos / Norte,,-36.8415301703331,-73.1095212308037,,,0,,
44725,,Los Peumos - Los Manios / Poniente,,-36.8416347847333,-73.1116162951139,,,0,,
44726,,Los Boldos - Los Maquis / Norte,,-36.8418607404175,-73.1133165566007,,,0,,
44727,,Los Avelanos - Ambrosio O`Higgins,,-36.8394952008538,-73.1147622673416,,,0,,
42154,,Manuel Montt - Errazuriz,,-36.7409276480087,-73.0971401540319,,,0,,
42155,,Manuel Montt - Buenos Aires,,-36.7403107725022,-73.0953216164016,,,0,,
42156,,Manuel Montt - Merino Jarpa,,-36.7398314544577,-73.0939671010128,,,0,,
42157,,Manuel Bayon - Pasaje Siete A,,-36.7403688063224,-73.0910354462321,,,0,,
42158,,Manuel Bayon - Iquique,,-36.7408932581149,-73.0891525358311,,,0,,
42159,,Manuel Bayon - Manuel Gaete,,-36.7419937354728,-73.0875002950779,,,0,,
42160,,Manuel Bayon - Pasaje Cuatro,,-36.7430168213629,-73.0861940589602,,,0,,
42161,,Volcan Osorno - Los Saucos / Poniente,,-36.7456045659737,-73.0854457229725,,,0,,
42162,,Volcan Osorno - Las Palmeras,,-36.7474443046535,-73.0862262457958,,,0,,
42163,,Volcan Osorno - El Pehuen,,-36.7487015774283,-73.0867600053898,,,0,,
42164,,Volcan Osorno - Volcan Llaima,,-36.7500447947104,-73.0876370874103,,,0,,
42165,,Volcan Osorno - Juan Guillermo Sosa / Poniente,,-36.7517619296538,-73.0874305576435,,,0,,
42166,,Juan Guillermo Sosa - Volcan Choshuenco,,-36.7516372828633,-73.0863496274105,,,0,,
42167,,Claudio Gay - Pasaje Dos,,-36.7521358685476,-73.0851614081621,,,0,,
42168,,Claudio Gay - Maden,,-36.7553594061222,-73.0850487553835,,,0,,
42169,,Claudio Gay - Tepa,,-36.757415953012,-73.0848046743631,,,0,,
42170,,Claudio Gay - Temu / Poniente,,-36.7591071363476,-73.0845793688059,,,0,,
42171,,Mons Alarcon - Rosal,,-36.7596228646342,-73.0825569838635,,,0,,
42172,,Jaime Repullo 866 / Poniente,,-36.7616379017986,-73.0813287901401,,,0,,
42173,,Jaime Repullo 560 / Poniente,,-36.7649985579071,-73.0817150282382,,,0,,
42213,,Terminal,,-36.9534842386711,-73.0224237777293,,,0,,
42236,,Calle 5 - Los Andes,,-36.9556222672648,-73.0185778671875,,,0,,
42237,,Calle 2 - Pje 4 / Norte,,-36.956358506827,-73.0177033413201,,,0,,
42238,,5 De Abril - Nvo Amanecer,,-36.9577543417706,-73.0158963915891,,,0,,
42239,,12 De Octubre - 5 De Abril,,-36.958079050569,-73.0172428605146,,,0,,
42240,,12 De Octubre - Calle 2,,-36.956732161213,-73.0187432283856,,,0,,
42241,,12 De Octubre / Cancha De Futbol,,-36.9554118608516,-73.0202077145077,,,0,,
42272,,Calle 5 - Italia,,-36.954106898807,-73.0200336989947,,,0,,
42382,,Jaime Repullo 560,,-36.7648524433881,-73.0815487312793,,,0,,
42383,,Jaime Repullo 866,,-36.761719556314,-73.0811732220172,,,0,,
42384,,Mons Alarcon - El Ceibo,,-36.7595798874094,-73.0819615334622,,,0,,
42385,,Claudio Gay - Temu / Oriente,,-36.7590512650504,-73.0844667160272,,,0,,
42386,,Claudio Gay - Naranjillo,,-36.757089316102,-73.0847134799114,,,0,,
42387,,Claudio Gay - Lilen,,-36.755120868963,-73.084962924695,,,0,,
42388,,Claudio Gay - Pasaje Cuatro,,-36.7516824136212,-73.084965606904,,,0,,
42389,,Juan Guillermo Sosa - Volcan Linzor,,-36.7514503120357,-73.0862396568409,,,0,,
42390,,Volcan Osorno - Juan Guillermo Sosa / Oriente,,-36.7515319776584,-73.0874251932255,,,0,,
42391,,Volcan Osorno - Volcan Mino,,-36.7502833476524,-73.0876183122746,,,0,,
42392,,Volcan Osorno - Los Mardonos,,-36.7484845112652,-73.0865266532055,,,0,,
42393,,Volcan Osorno - Los Laureles,,-36.7473003080318,-73.0860223979107,,,0,,
42394,,Volcan Osorno - Los Saucos / Oriente,,-36.7456668941631,-73.0853303879849,,,0,,
42395,,Manuel Bayon - Calle Dos,,-36.7433370702359,-73.0856039733044,,,0,,
42396,,Manuel Bayon - Pedro Lira,,-36.7415595646498,-73.087867757713,,,0,,
42397,,Manuel Bayon - Pasaje Dos A,,-36.7408416728515,-73.0888869971386,,,0,,
42398,,Manuel Bayon - Hernan Merino Correa,,-36.7401882565155,-73.0912848916705,,,0,,
42399,,Manuel Bayon - Merino Jarpa,,-36.739631558604,-73.0933931082836,,,0,,
42400,,Manuel Montt - Jotabeche,,-36.740579447227,-73.0964400973971,,,0,,
36489,,Ramuntcho - Quillon,,-36.7967633694384,-73.0957185831721,,,0,,
36490,,Ramuntcho - Quirihue,,-36.7959407503533,-73.0944686739349,,,0,,
36551,,Toscana - Tirol,,-36.7914279993393,-73.097322544163,,,0,,
36552,,Toscana - Alicante,,-36.7902380156541,-73.0973279085811,,,0,,
36553,,Patria Vieja - Palermo / Norte,,-36.7896129443422,-73.0981245249859,,,0,,
36554,,Patria Vieja - Altonia / Norte,,-36.7896043522611,-73.0996748416328,,,0,,
36641,,Pipilco - Postdam / Poniente,,-36.7992167078314,-73.0969103146344,,,0,,
36686,,Ramuntcho - Iiquen,,-36.7960502899919,-73.0951365439796,,,0,,
36687,,Los Escritores - Hualqui,,-36.7972487754059,-73.0960914103889,,,0,,
36688,,Los Escritores - Pilpilco,,-36.7979210356839,-73.0956515281105,,,0,,
36689,,Guarilihue - Pje Dieciseis,,-36.8035995735394,-73.1003775805584,,,0,,
36697,,Calle Dos,,-36.7965464395063,-73.1121524781338,,,0,,
36698,,Calle Siete - Pasaje Quince,,-36.7970935655861,-73.1101088935247,,,0,,
36752,,Trasera Polonia - Finlandia,,-36.786818319171,-73.1169992298237,,,0,,
36753,,Trasera Calmar / Poniente,,-36.7894862110489,-73.1154140436411,,,0,,
36768,,Patria Vieja - Altonia / Sur,,-36.7897375294092,-73.1001254527473,,,0,,
36769,,Patria Vieja - Palermo / Sur,,-36.789737529147,-73.0978348460849,,,0,,
36770,,Toscana - Badalona,,-36.7904893315484,-73.0974834767039,,,0,,
36771,,Toscana - Patria Nva,,-36.7917029394352,-73.0974593371502,,,0,,
36772,,Toscana - Sabadell,,-36.7927919476755,-73.0974539724048,,,0,,
42461,,Av. Padre Hurtado - Maipu,,-36.8287103845125,-73.061619149521,,,0,,
42885,,Emilio Rojas - Pje 5,,-36.9210581553448,-73.0297841993161,,,0,,
42886,,Calle A - Pje 9,,-36.9213926699911,-73.0313251283951,,,0,,
42887,,Cochrane - Videla,,-36.9233225335253,-73.0341233429499,,,0,,
42888,,Cochrane - Calle2,,-36.9231697544425,-73.0340368417092,,,0,,
42889,,Videla - Los Carrera,,-36.9251756926178,-73.0338008073159,,,0,,
42890,,Calle A - Calle D,,-36.9216242561941,-73.0335815367289,,,0,,
42891,,Cp Angulo Novoa - Las Condes,,-36.9288641867692,-73.0311930296012,,,0,,
42892,,Las Condes - Calle4,,-36.9290576924351,-73.0325683322735,,,0,,
42893,,Cp Angulo Novoa - Fragata Ma. Isabel,,-36.9297727478918,-73.03081483813,,,0,,
42894,,Cp Angulo Novoa - Blanco Encalada,,-36.9312500076372,-73.0301818368026,,,0,,
42895,,Calle 4 - Bergantian Ancud,,-36.9275251784256,-73.0333662894554,,,0,,
42896,,Videla - Chiguay,,-36.9266621541788,-73.0336103704759,,,0,,
42897,,Pje 18a - Matte,,-36.9209945416101,-73.0300406921015,,,0,,
42898,,Pje 18b - Pje 13,,-36.9215206170996,-73.0335935569019,,,0,,
42943,,Calle 4 - Pje 11,,-36.9273672274601,-73.0335999834642,,,0,,
42944,,Corbata Libertad - Cp Angulo Novoa,,-36.9288852719088,-73.0315373647318,,,0,,
42945,,Cp Angulo Novoa - Corbeta Chacabuco,,-36.9310314950333,-73.0304752099619,,,0,,
42946,,Cp Angulo Novoa - Bergantin Potrillo,,-36.9333790123201,-73.0292752501555,,,0,,
42947,,Cp Angulo Novoa - Bergantin Aguilar,,-36.9332719931646,-73.0294854748354,,,0,,
42948,,Pinares - La Marina,,-36.9336062741611,-73.0277624842711,,,0,,
42949,,Pinares - La Marina / Sur,,-36.9337651083125,-73.027970026742,,,0,,
42950,,Bio Bio - Av 101,,-36.9396434726783,-73.0264663067647,,,0,,
42951,,Av 101 - Bio Bio,,-36.9396908164551,-73.0268193590746,,,0,,
42952,,Pasada Falsa - Los Castanos,,-36.9411500178733,-73.0256864544936,,,0,,
42953,,Manquimavia - Pje 3,,-36.9436635399562,-73.0265903589316,,,0,,
42954,,Maquimavida - Los Radales,,-36.9439942039602,-73.0271958676167,,,0,,
42955,,Manquimavida - Pje 2,,-36.9433502041749,-73.0260602939234,,,0,,
42956,,Los Castanos - Pje 1,,-36.941775458516,-73.0273614940234,,,0,,
42957,,Los Altos,,-36.9417345514651,-73.0270382380695,,,0,,
42958,,Pasada Falsa - Pje 6,,-36.9423076417554,-73.0253985989839,,,0,,
42979,,Los Aromos - Los Leuques,,-36.9450547843324,-73.0247711506672,,,0,,
42980,,Jorge Montt,,-36.9444099017105,-73.0205633868172,,,0,,
42981,,Coquimbo - Pje 3,,-36.9457768365468,-73.0214790815808,,,0,,
42982,,Central - Galvarino,,-36.9456739420437,-73.023509513805,,,0,,
42983,,Los Radales,,-36.9440876342014,-73.0270875812857,,,0,,
43080,,Jorge Montt - Los Alamos,,-36.9436967671981,-73.0208798869899,,,0,,
43082,,Coquimbo - Pje 4,,-36.9457053806499,-73.020940956194,,,0,,
43098,,Irarazaval - Pelantaro,,-36.8195940041723,-73.0350760091096,,,0,,
41796,,Los Pinos - Los Cipreses,,-36.9505139404427,-73.0153800663538,,,0,,
41937,,Calle 2 - Pje Cuatro / Sur,,-36.9564463835628,-73.0176435225258,,,0,,
41939,,Janequeo - San Martin,,-36.8243384020747,-73.0399933085937,,,0,,
41940,,Janequeo - Freire,,-36.8218749875434,-73.0415580981025,,,0,,
41942,,San Eugenio Norte,,-36.7076350656619,-73.120598753012,,,0,,
41943,,Diez De Julio Huamachuco - Michimalonco,,-36.710462680539,-73.1253462639506,,,0,,
41948,,Interior Tumbes / Sur,,-36.6391901588678,-73.0976792776346,,,0,,
41949,,Maryland / Sur,,-36.6392827046986,-73.0958526936229,,,0,,
41950,,Maryland - O480,,-36.6397755631811,-73.0938008038902,,,0,,
41951,,O480 Salida Tumbes,,-36.6414865539624,-73.0936184133498,,,0,,
41952,,O480 A Talcahuano,,-36.6421666353409,-73.0941548553164,,,0,,
41953,,O480 A Talcahuano,,-36.6436688191322,-73.0956005663029,,,0,,
41954,,O480 Recinto Militar,,-36.6556373272475,-73.1065415548801,,,0,,
41955,,O480 Recinto Militar,,-36.6595712314727,-73.1095078193903,,,0,,
41956,,Michimalonco - O480 / A Talcahuano,,-36.6757263535969,-73.1092530095339,,,0,,
41957,,Michimalonco - Maruri / Poniente,,-36.6801420904674,-73.1152801931603,,,0,,
41958,,Michimalonco - Rengo / Poniente,,-36.6818027093386,-73.1160473049385,,,0,,
41959,,Michimalonco - Inaqueipo / Poniente,,-36.6853647482515,-73.1152158201439,,,0,,
41960,,Michimalonco - Lincoyan / Poniente,,-36.6869134089112,-73.1148885906441,,,0,,
41961,,Michimalenco - Tucapel,,-36.6899165681151,-73.1143331127532,,,0,,
41962,,Michimalenco - Angol / Poniente,,-36.6909511016944,-73.1143706649891,,,0,,
41963,,Michimalonco - Paicavi,,-36.6932803643962,-73.1167283254035,,,0,,
41964,,Michimalonco - Quidora / Poniente,,-36.6947084277798,-73.1186595158943,,,0,,
41965,,Michimalonco - Rucumilla / Poniente,,-36.6965751945775,-73.1186756091483,,,0,,
41966,,Michimalonco 2777 / Poniente,,-36.6991408481908,-73.1190886706463,,,0,,
41967,,Colegio Arturo Prat,,-36.7009515921947,-73.1200730413548,,,0,,
41968,,Michimalonco / Poniente,,-36.7045256465292,-73.121671636618,,,0,,
41969,,Michimalonco - Diez De Julio Huamachuco,,-36.7101680974899,-73.1254723277743,,,0,,
42045,,Michimalonco / Oriente,,-36.7043041546763,-73.1214597421058,,,0,,
42046,,Acceso Poblacion Naval,,-36.7012161046879,-73.1200328069099,,,0,,
42047,,Michimalonco 2777 / Oriente,,-36.6992870857167,-73.1189652890316,,,0,,
42048,,Michimalonco - Rucumilla / Oriente,,-36.6965945502061,-73.1185710029968,,,0,,
42049,,Michimalonco - Quidora / Oriente,,-36.6945879907736,-73.1185388164886,,,0,,
42050,,Michimalonco - Cabo De Hornos,,-36.6933900509278,-73.116639812506,,,0,,
42051,,Michimalenco - Angol / Oriente,,-36.6908607687556,-73.1141882747761,,,0,,
42052,,Michimalenco - Hospital,,-36.6898670994248,-73.1141668157943,,,0,,
42053,,Michimalenco - Lincoyan / Oriente,,-36.686749940647,-73.1148081243737,,,0,,
42054,,Michimalonco - Inaqueipo / Oriente,,-36.6852701068668,-73.1150870741112,,,0,,
42055,,Michimalonco - Rengo / Oriente,,-36.6818586363285,-73.1158971012337,,,0,,
42056,,Michimalonco - Maruri / Oriente,,-36.6801894143293,-73.1151568115456,,,0,,
42057,,Michimalonco - O480 / A Tumbes,,-36.6758080994866,-73.1091618144274,,,0,,
42077,,Los Pinos - Los Boldos,,-36.9506050391695,-73.0155262467452,,,0,,
42082,,San Eugenio,,-36.7079662146988,-73.1214677900425,,,0,,
42127,,O480 A Tumbes,,-36.6437721200929,-73.0956515276193,,,0,,
42128,,O480 A Tumbes,,-36.6421752439274,-73.0940609780009,,,0,,
42129,,O480 Acceso Tumbes,,-36.6415102277821,-73.0935406292883,,,0,,
42130,,O 480 - Maryland,,-36.6397411277564,-73.0936371891403,,,0,,
42131,,Maryland / Norte,,-36.6392224423098,-73.0958151426967,,,0,,
42132,,Interior Tumbes / Norte,,-36.6390954606932,-73.0976551377535,,,0,,
43205,,Mons Alarcon - Dario Bastias,,-36.7598420470567,-73.0870872342348,,,0,,
43206,,Claudio Gay Ote - Mons Alarcon / Poniente,,-36.759261854673,-73.0840804785839,,,0,,
43207,,Claudio Gay Ote - Tepa,,-36.7572375922401,-73.0842092246166,,,0,,
43208,,Claudio Gay Ote - Lilen,,-36.755116571514,-73.0844747633091,,,0,,
43209,,Av Claudio Gay Ote - Calle Uno,,-36.7518092091555,-73.0843460172764,,,0,,
43210,,Av Claudio Gay Ote - Pje Dos,,-36.7507002761075,-73.0841368049732,,,0,,
43211,,Almirante Neff - Volcan Chillan / Norte,,-36.7447706511594,-73.0862262457958,,,0,,
43212,,Manuel Barros Borgono - Ramon Gallegos,,-36.7440012062569,-73.0879616350285,,,0,,
43213,,Manuel Barrios - Pedro Lira,,-36.7421592355856,-73.0889379587825,,,0,,
43214,,Iquique - Luis Cruchaga,,-36.7420340059474,-73.0921488226159,,,0,,
43230,,Victor Gregorio Amunategui - Pje Cinco,,-36.7393585817049,-73.0896111932452,,,0,,
43231,,Victor Gregorio Amunategui - Hernan Merino Correa,,-36.7385912319933,-73.0905821529086,,,0,,
43326,,Manuel Barrios - Eugenio Pereira,,-36.7419077612474,-73.0891820398028,,,0,,
43327,,Manuel Barros Borgono - Pasaje Cuatro,,-36.7437733803084,-73.08822985593,,,0,,
43328,,Almirante Neff - Volcan Chillan / Sur,,-36.7448114874052,-73.0858453721157,,,0,,
43335,,Av Claudio Gay Ote - Pje Uno,,-36.7512418500636,-73.0843835682026,,,0,,
43336,,Claudio Gay Ote - Luma,,-36.7548006697925,-73.0846330129862,,,0,,
43337,,Claudio Gay Ote - Naranjillo,,-36.7571344436527,-73.0843513816944,,,0,,
43338,,Mons Alarcon - Jaime Repullo,,-36.7596465020976,-73.0864649623982,,,0,,
43339,,Caludio Gay Ote - Mons Alarcon / Oriente,,-36.7592167288986,-73.0839544147602,,,0,,
43344,,Hernan Merino Correa - Victor Gregorio Amunategui,,-36.7387030032969,-73.0907377210315,,,0,,
43345,,Victor Gregorio Amunategui - Pje Ana Maria Guralde,,-36.7394273633773,-73.0896970239337,,,0,,
